INFO: Setting HV 1&2 to: 124
Detector threshold: 1160
Detector setup finished
INFO: Sensor setup complete
INFO: Running
Pressure: 963.346924;
Altitude: 423.941833;
TemperatureCBaro: 25.922916;
AccelX: -0.204112;
AccelY: 0.035316;
AccelZ: 9.719558;
MagX: 0.153203;
MagY: -0.183844;
MagZ: 0.328257;
TemperatureCHumid: 25.662382;
Humidity: 29.530090;
TemperatureC: 25.000000;
PPS: GPS lock:1;
$GNZDA,195703.000,02,02,2018,,*4A
$GPGGA,195703.000,4614.0223,N,00603.1264,E,1,9,1.11,480.6,M,48.2,M,,*59
$GNZDA,195704.000,0Pressure: 963.399170;
Altitude: 423.488800;
TemperatureCBaro: 25.950001;
AccelX: -0.225062;
AccelY: 0.016760;
AccelZ: 9.721354;
MagX: 0.154057;
MagY: -0.183844;
MagZ: 0.326670;
TemperatureCHumid: 25.651663;
Humidity: 29.499573;
TemperatureC: 25.000000;
5718.000,02,02,2018,,*40
$GPGGA,195718.000,4Pressure: 963.399170;
Altitude: 423.488800;
TemperatureCBaro: 25.950001;
AccelX: -0.199323;
AccelY: 0.030527;
AccelZ: 9.715368;
MagX: 0.154057;
MagY: -0.183844;
MagZ: 0.326670;
TemperatureC: 25.000000;
614.01952$4PPS: GPS lock:1;
Pressure: 963.401123;
Altitude: 423.472046;
TemperatureCBaro: 25.929167;
AccelX: -0.209499;
AccelY: 0.031126;
AccelZ: 9.708784;
MagX: 0.154180;
MagY: -0.184454;
MagZ: 0.325938;
TemperatureCHumid: 25.673109;
Humidity: 29.484314;
TemperatureC: 25.000000;
$GNZDA,195719.000,02,02,2018,,*41
$GPGGA,195719.000,4614.0195,N,00603.1337,E,1,9,1.11,480.1,M,48.2,M,,*5C
PPS: GPS lock:1;
Event: sub second micros:291430/41998358; Event Count:0
Event: sub second micros:12956834/41998358; Event Count:1
Pressure: 963.478760;
Altitude: 422.798615;
TemperatureCBaro: 25.937500;
AccelX: -0.223865;
AccelY: 0.029928;
AccelZ: 9.695616;
MagX: 0.153569;
MagY: -0.184332;
MagZ: 0.328135;
TemperatureCHumid: 25.651663;
Humidity: 29.484314;
TemperatureC: 25.000000;
$GNZDA,195720.000,02,02,2018,,*4B
$GPGGA,195720.000,4614.0195,N,00603.1337,E,1,9,1.11,480.1,M,48.2,M,,*56
PPS: GPS lock:1;
Pressure: 963.476562;
Altitude: 422.817963;
TemperatureCBaro: 25.943750;
AccelX: -0.220273;
AccelY: 0.022147;
AccelZ: 9.730931;
MagX: 0.152715;
MagY: -0.183844;
MagZ: 0.325327;
TemperatureCHumid: 25.683836;
Humidity: 29.469055;
TemperatureC: 25.000000;
$GNZDA,195721.000,02,02,2018,,*4A
$GPGGA,195721.000,4614.0195,N,00603.1337,E,1,9,1.13,480.1,M,48.2,M,,*55
Event: sub second micros:24409831/41998358; Event Count:2
PPS: GPS lock:1;
Pressure: 963.404297;
Altitude: 423.444305;
TemperatureCBaro: 25.952084;
AccelX: -0.214886;
AccelY: 0.041900;
AccelZ: 9.709981;
MagX: 0.154790;
MagY: -0.184576;
MagZ: 0.327280;
TemperatureCHumid: 25.694563;
Humidity: 29.446167;
TemperatureC: 25.000000;
$GNZDA,195722.000,02,02,2018,,*49
$GPGGA,195722.000,4614.0195,N,00603.1337,E,1,9,1.13,480.1,M,48.2,M,,*56
Event: sub second micros:4623974/41998358; Event Count:3
PPS: GPS lock:1;
Pressure: 963.425781;
Altitude: 423.258392;
TemperatureCBaro: 25.968750;
AccelX: -0.216682;
AccelY: 0.033520;
AccelZ: 9.730931;
MagX: 0.153081;
MagY: -0.184454;
MagZ: 0.325205;
TemperatureCHumid: 25.705282;
Humidity: 29.438538;
TemperatureC: 25.000000;
$GNZDA,195723.000,02,02,2018,,*48
$GPGGA,195723.000,4614.0195,N,00603.1337,E,1,9,1.13,480.1,M,48.2,M,,*57
Event: sub second micros:24385182/41998358; Event Count:4
Event: sub second micros:30278210/41998358; Event Count:5
PPS: GPS lock:1;
Pressure: 963.436279;
Altitude: 423.167267;
TemperatureCBaro: 25.972918;
AccelX: -0.219076;
AccelY: 0.024541;
AccelZ: 9.724945;
MagX: 0.153935;
MagY: -0.183844;
MagZ: 0.327647;
TemperatureCHumid: 25.705282;
Humidity: 29.423279;
TemperatureC: 25.000000;
$GNZDA,195724.000,02,02,2018,,*4F
$GPGGA,195724.000,4614.0195,N,00603.1337,E,1,9,1.13,480.1,M,48.2,M,,*50
Event: sub second micros:39285314/41998357; Event Count:6
PPS: GPS lock:1;
Pressure: 963.393311;
Altitude: 423.539612;
TemperatureCBaro: 25.979166;
AccelX: -0.204112;
AccelY: 0.012570;
AccelZ: 9.700404;
MagX: 0.153935;
MagY: -0.183355;
MagZ: 0.324961;
TemperatureCHumid: 25.705282;
Humidity: 29.423279;
TemperatureC: 25.000000;
$GNZDA,195725.000,02,02,2018,,*4E
$GPGGA,195725.000,4614.0195,N,00603.1337,E,1,9,1.14,480.1,M,48.2,M,,*56
PPS: GPS lock:1;
Pressure: 963.420410;
Altitude: 423.304993;
TemperatureCBaro: 25.989584;
AccelX: -0.223266;
AccelY: 0.038308;
AccelZ: 9.717164;
MagX: 0.153935;
MagY: -0.183966;
MagZ: 0.327403;
TemperatureCHumid: 25.726736;
Humidity: 29.415649;
TemperatureC: 25.000000;
$GNZDA,195726.000,02,02,2018,,*4D
$GPGGA,195726.000,4614.0195,N,00603.1337,E,1,9,1.11,480.1,M,48.2,M,,*50
PPS: GPS lock:1;
Pressure: 963.389404;
Altitude: 423.573639;
TemperatureCBaro: 25.997917;
AccelX: -0.205908;
AccelY: 0.023943;
AccelZ: 9.717164;
MagX: 0.153813;
MagY: -0.183966;
MagZ: 0.325938;
TemperatureCHumid: 25.705282;
Humidity: 29.392761;
TemperatureC: 25.000000;
$GNZDA,195727.000,02,02,2018,,*4C
$GPGGA,195727.000,4614.0195,N,00603.1337,E,1,9,1.13,480.1,M,48.2,M,,*53
Event: sub second micros:12351007/41998357; Event Count:7
Event: sub second micros:22010656/41998357; Event Count:8
PPS: GPS lock:1;
Pressure: 963.485352;
Altitude: 422.741516;
TemperatureCBaro: 26.008333;
AccelX: -0.202316;
AccelY: 0.038308;
AccelZ: 9.724945;
MagX: 0.154057;
MagY: -0.183966;
MagZ: 0.328013;
TemperatureCHumid: 25.737463;
Humidity: 29.385132;
TemperatureC: 25.000000;
$GNZDA,195728.000,02,02,2018,,*43
$GPGGA,195728.000,4614.0195,N,00603.1337,E,1,9,1.13,480.1,M,48.2,M,,*5C
PPS: GPS lock:1;
Pressure: 963.361816;
Altitude: 423.812988;
TemperatureCBaro: 26.010416;
AccelX: -0.205309;
AccelY: 0.028731;
AccelZ: 9.714769;
MagX: 0.153447;
MagY: -0.182989;
MagZ: 0.325571;
TemperatureCHumid: 25.726736;
Humidity: 29.362244;
TemperatureC: 25.000000;
$GNZDA,195729.000,02,02,2018,,*42
$GPGGA,195729.000,4614.0195,N,00603.1337,E,1,9,1.13,480.1,M,48.2,M,,*5D
PPS: GPS lock:1;
Pressure: 963.414062;
Altitude: 423.359985;
TemperatureCBaro: 26.016666;
AccelX: -0.207105;
AccelY: 0.037710;
AccelZ: 9.726143;
MagX: 0.153569;
MagY: -0.183599;
MagZ: 0.328745;
TemperatureCHumid: 25.748182;
Humidity: 29.354614;
TemperatureC: 25.000000;
$GNZDA,195730.000,02,02,2018,,*4A
$GPGGA,195730.000,4614.0195,N,00603.1337,E,1,9,1.13,480.1,M,48.2,M,,*55
Event: sub second micros:20633624/41998358; Event Count:9
PPS: GPS lock:1;
Pressure: 963.432129;
Altitude: 423.203400;
TemperatureCBaro: 26.027082;
AccelX: -0.220273;
AccelY: 0.019753;
AccelZ: 9.713573;
MagX: 0.153325;
MagY: -0.183966;
MagZ: 0.325449;
TemperatureCHumid: 25.758909;
Humidity: 29.346985;
TemperatureC: 25.000000;
$GNZDA,195731.000,02,02,2018,,*4B
$GPGGA,195731.000,4614.0195,N,00603.1337,E,1,9,1.13,480.1,M,48.2,M,,*54
Event: sub second micros:12671319/41998357; Event Count:10
Event: sub second micros:35740678/41998357; Event Count:11
PPS: GPS lock:1;
Pressure: 963.364258;
Altitude: 423.791504;
TemperatureCBaro: 26.037500;
AccelX: -0.205908;
AccelY: 0.024541;
AccelZ: 9.708185;
MagX: 0.152715;
MagY: -0.183599;
MagZ: 0.328501;
TemperatureCHumid: 25.769636;
Humidity: 29.316467;
TemperatureC: 25.000000;
$GNZDA,195732.000,02,02,2018,,*48
$GPGGA,195732.000,4614.0195,N,00603.1337,E,1,9,1.13,480.1,M,48.2,M,,*57
Event: sub second micros:687239/41998357; Event Count:12
Event: sub second micros:20694265/41998357; Event Count:13
PPS: GPS lock:1;
Pressure: 963.364014;
Altitude: 423.793610;
TemperatureCBaro: 26.047916;
AccelX: -0.195732;
AccelY: 0.034717;
AccelZ: 9.712974;
MagX: 0.154302;
MagY: -0.184210;
MagZ: 0.325083;
TemperatureCHumid: 25.780363;
Humidity: 29.301208;
TemperatureC: 25.000000;
$GNZDA,195733.000,02,02,2018,,*49
$GPGGA,195733.000,4614.0195,N,00603.1337,E,1,9,1.13,480.1,M,48.2,M,,*56
Event: sub second micros:30621175/41998358; Event Count:14
PPS: GPS lock:1;
Pressure: 963.337891;
Altitude: 424.020386;
TemperatureCBaro: 26.052084;
AccelX: -0.210696;
AccelY: 0.032323;
AccelZ: 9.723748;
MagX: 0.154302;
MagY: -0.185064;
MagZ: 0.328379;
TemperatureCHumid: 25.780363;
Humidity: 29.316467;
TemperatureC: 25.000000;
$GNZDA,195734.000,02,02,2018,,*4E
$GPGGA,195734.000,4614.0195,N,00603.1337,E,1,9,1.13,480.1,M,48.2,M,,*51
Event: sub second micros:23128088/41998357; Event Count:15
PPS: GPS lock:1;
Pressure: 963.429199;
Altitude: 423.228546;
TemperatureCBaro: 26.062500;
AccelX: -0.199922;
AccelY: 0.028133;
AccelZ: 9.727340;
MagX: 0.153813;
MagY: -0.183233;
MagZ: 0.325327;
TemperatureCHumid: 25.780363;
Humidity: 29.301208;
TemperatureC: 25.000000;
$GNZDA,195735.000,02,02,2018,,*4F
$GPGGA,195735.000,4614.0195,N,00603.1337,E,1,9,1.13,480.1,M,48.2,M,,*50
Event: sub second micros:9599064/41998357; Event Count:16
PPS: GPS lock:1;
Pressure: 963.420166;
Altitude: 423.307098;
TemperatureCBaro: 26.070833;
AccelX: -0.214288;
AccelY: 0.021548;
AccelZ: 9.721354;
MagX: 0.154180;
MagY: -0.184332;
MagZ: 0.328990;
TemperatureCHumid: 25.801809;
Humidity: 29.293579;
TemperatureC: 25.000000;
$GNZDA,195736.000,02,02,2018,,*4C
$GPGGA,195736.000,4614.0195,N,00603.1337,E,1,9,1.13,480.1,M,48.2,M,,*53
PPS: GPS lock:1;
Event: sub second micros:3419291/41998357; Event Count:17
Event: sub second micros:7521382/41998357; Event Count:18
Event: sub second micros:38951270/41998357; Event Count:19
Pressure: 963.448486;
Altitude: 423.061493;
TemperatureCBaro: 26.081249;
AccelX: -0.207105;
AccelY: 0.039506;
AccelZ: 9.718361;
MagX: 0.152959;
MagY: -0.182989;
MagZ: 0.326304;
TemperatureCHumid: 25.801809;
Humidity: 29.263062;
TemperatureC: 25.000000;
$GNZDA,195737.000,02,02,2018,,*4D
$GPGGA,195737.000,4614.0195,N,00603.1337,E,1,9,1.13,480.1,M,48.2,M,,*52
PPS: GPS lock:1;
Event: sub second micros:26891246/41998357; Event Count:20
Event: sub second micros:30871756/41998357; Event Count:21
Event: sub second micros:38443492/41998357; Event Count:22
Pressure: 963.483643;
Altitude: 422.756714;
TemperatureCBaro: 26.087500;
AccelX: -0.213689;
AccelY: 0.037710;
AccelZ: 9.718361;
MagX: 0.154302;
MagY: -0.184454;
MagZ: 0.327891;
TemperatureCHumid: 25.823263;
Humidity: 29.255432;
TemperatureC: 25.000000;
$GNZDA,195738.000,02,02,2018,,*42
$GPGGA,195738.000,4614.0195,N,00603.1337,E,1,9,1.13,480.1,M,48.2,M,,*5D
PPS: GPS lock:1;
Pressure: 963.445312;
Altitude: 423.088715;
TemperatureCBaro: 26.089582;
AccelX: -0.215485;
AccelY: 0.028731;
AccelZ: 9.722551;
MagX: 0.154057;
MagY: -0.183844;
MagZ: 0.326304;
TemperatureCHumid: 25.844709;
Humidity: 29.247803;
TemperatureC: 25.000000;
$GNZDA,195739.000,02,02,2018,,*43
$GPGGA,195739.000,4614.0195,N,00603.1337,E,1,9,1.13,480.1,M,48.2,M,,*5C
PPS: GPS lock:1;
Pressure: 963.429932;
Altitude: 423.222260;
TemperatureCBaro: 26.106251;
AccelX: -0.214886;
AccelY: 0.056864;
AccelZ: 9.698009;
MagX: 0.153813;
MagY: -0.184332;
MagZ: 0.327158;
TemperatureCHumid: 25.844709;
Humidity: 29.224915;
TemperatureC: 25.000000;
$GNZDA,195740.000,02,02,2018,,*4D
$GPGGA,195740.000,4614.0195,N,00603.1337,E,1,9,1.13,480.1,M,48.2,M,,*52
PPS: GPS lock:1;
Event: sub second micros:10736415/41998357; Event Count:23
Pressure: 963.413818;
Altitude: 423.362091;
TemperatureCBaro: 26.112499;
AccelX: -0.234040;
AccelY: 0.014964;
AccelZ: 9.698608;
MagX: 0.154057;
MagY: -0.183599;
MagZ: 0.326304;
TemperatureCHumid: 25.844709;
Humidity: 29.217285;
TemperatureC: 25.000000;
$GNZDA,195741.000,02,02,2018,,*4C
$GPGGA,195741.000,4614.0195,N,00603.1337,E,1,9,1.14,480.1,M,48.2,M,,*54
PPS: GPS lock:1;
Pressure: 963.416748;
Altitude: 423.336426;
TemperatureCBaro: 26.118750;
AccelX: -0.183761;
AccelY: 0.041900;
AccelZ: 9.685440;
MagX: 0.153935;
MagY: -0.184088;
MagZ: 0.327280;
TemperatureCHumid: 25.844709;
Humidity: 29.202026;
TemperatureC: 25.000000;
$GNZDA,195742.000,02,02,2018,,*4F
$GPGGA,195742.000,4614.0195,N,00603.1337,E,1,9,1.13,480.1,M,48.2,M,,*50
PPS: GPS lock:1;
Pressure: 963.417480;
Altitude: 423.330139;
TemperatureCBaro: 26.125000;
AccelX: -0.204710;
AccelY: 0.025140;
AccelZ: 9.729136;
MagX: 0.153813;
MagY: -0.184088;
MagZ: 0.325449;
TemperatureCHumid: 25.866163;
Humidity: 29.186768;
TemperatureC: 25.000000;
$GNZDA,195743.000,02,02,2018,,*4E
$GPGGA,195743.000,4614.0195,N,00603.1337,E,1,9,1.13,480.1,M,48.2,M,,*51
PPS: GPS lock:1;
Pressure: 963.380127;
Altitude: 423.654297;
TemperatureCBaro: 26.131250;
AccelX: -0.231646;
AccelY: 0.009577;
AccelZ: 9.753676;
MagX: 0.152959;
MagY: -0.184454;
MagZ: 0.327280;
TemperatureCHumid: 25.876890;
Humidity: 29.186768;
TemperatureC: 25.000000;
$GNZDA,195744.000,02,02,2018,,*49
$GPGGA,195744.000,4614.0195,N,00603.1337,E,1,9,1.13,480.1,M,48.2,M,,*56
Event: sub second micros:28487462/41998357; Event Count:24
PPS: GPS lock:1;
Pressure: 963.392822;
Altitude: 423.543793;
TemperatureCBaro: 26.143749;
AccelX: -0.201119;
AccelY: 0.023943;
AccelZ: 9.720157;
MagX: 0.154424;
MagY: -0.183721;
MagZ: 0.326670;
TemperatureCHumid: 25.887609;
Humidity: 29.194397;
TemperatureC: 25.000000;
$GNZDA,195745.000,02,02,2018,,*48
$GPGGA,195745.000,4614.0195,N,00603.1337,E,1,9,1.13,480.1,M,48.2,M,,*57
Event: sub second micros:18221637/41998356; Event Count:25
PPS: GPS lock:1;
Pressure: 963.343506;
Altitude: 423.971680;
TemperatureCBaro: 26.152082;
AccelX: -0.206506;
AccelY: 0.019753;
AccelZ: 9.729733;
MagX: 0.153081;
MagY: -0.184088;
MagZ: 0.327525;
TemperatureCHumid: 25.876890;
Humidity: 29.179138;
TemperatureC: 25.000000;
$GNZDA,195746.000,02,02,2018,,*4B
$GPGGA,195746.000,4614.0195,N,00603.1337,E,1,9,1.13,480.1,M,48.2,M,,*54
PPS: GPS lock:1;
Pressure: 963.364258;
Altitude: 423.791504;
TemperatureCBaro: 26.162500;
AccelX: -0.217280;
AccelY: 0.024541;
AccelZ: 9.740508;
MagX: 0.153813;
MagY: -0.183966;
MagZ: 0.326426;
TemperatureCHumid: 25.909063;
Humidity: 29.148621;
TemperatureC: 25.000000;
$GNZDA,195747.000,02,02,2018,,*4A
$GPGGA,195747.000,4614.0195,N,00603.1337,E,1,9,1.13,480.1,M,48.2,M,,*55
PPS: GPS lock:1;
Pressure: 963.394287;
Altitude: 423.531219;
TemperatureCBaro: 26.172916;
AccelX: -0.235836;
AccelY: 0.062251;
AccelZ: 9.536396;
MagX: 0.153203;
MagY: -0.184088;
MagZ: 0.327158;
TemperatureCHumid: 25.909063;
Humidity: 29.148621;
TemperatureC: 25.000000;
$GNZDA,195748.000,02,02,2018,,*45
$GPGGA,195748.000,4614.0195,N,00603.1337,E,1,9,1.14,480.1,M,48.2,M,,*5D
PPS: GPS lock:1;
Pressure: 963.449463;
Altitude: 423.053101;
TemperatureCBaro: 26.174999;
AccelX: -0.179571;
AccelY: 0.016760;
AccelZ: 9.630372;
MagX: 0.154424;
MagY: -0.182867;
MagZ: 0.326426;
TemperatureCHumid: 25.898336;
Humidity: 29.125732;
TemperatureC: 25.000000;
$GNZDA,195749.000,02,02,2018,,*44
$GPGGA,195749.000,4614.0195,N,00603.1337,E,1,9,1.11,480.1,M,48.2,M,,*59
Event: sub second micros:7858540/41998357; Event Count:26
PPS: GPS lock:1;
Pressure: 963.417969;
Altitude: 423.325958;
TemperatureCBaro: 26.187500;
AccelX: -0.214288;
AccelY: 0.019753;
AccelZ: 9.663892;
MagX: 0.153813;
MagY: -0.183966;
MagZ: 0.327158;
TemperatureCHumid: 25.919790;
Humidity: 29.110474;
TemperatureC: 25.000000;
$GNZDA,195750.000,02,02,2018,,*4C
$GPGGA,195750.000,4614.0195,N,00603.1337,E,1,9,1.11,480.1,M,48.2,M,,*51
Event: sub second micros:10081144/41998356; Event Count:27
PPS: GPS lock:1;
Pressure: 963.434814;
Altitude: 423.179840;
TemperatureCBaro: 26.191668;
AccelX: -0.215485;
AccelY: 0.004190;
AccelZ: 9.715368;
MagX: 0.152959;
MagY: -0.183599;
MagZ: 0.326670;
TemperatureCHumid: 25.930510;
Humidity: 29.095215;
TemperatureC: 25.000000;
$GNZDA,195751.000,02,02,2018,,*4D
$GPGGA,195751.000,4614.0195,N,00603.1337,E,1,9,1.11,480.1,M,48.2,M,,*50
PPS: GPS lock:1;
Pressure: 963.363281;
Altitude: 423.800415;
TemperatureCBaro: 26.202084;
AccelX: -0.195732;
AccelY: 0.022746;
AccelZ: 9.744100;
MagX: 0.153081;
MagY: -0.183477;
MagZ: 0.326914;
TemperatureCHumid: 25.941236;
Humidity: 29.087585;
TemperatureC: 25.000000;
$GNZDA,195752.000,02,02,2018,,*4E
$GPGGA,195752.000,4614.0195,N,00603.1337,E,1,9,1.11,480.1,M,48.2,M,,*53
Event: sub second micros:6320989/41998355; Event Count:28
Event: sub second micros:35954045/41998355; Event Count:29
PPS: GPS lock:1;
Pressure: 963.420410;
Altitude: 423.304993;
TemperatureCBaro: 26.204166;
AccelX: -0.211893;
AccelY: 0.017957;
AccelZ: 9.711178;
MagX: 0.154424;
MagY: -0.183477;
MagZ: 0.324961;
TemperatureCHumid: 25.951963;
Humidity: 29.064697;
TemperatureC: 25.000000;
$GNZDA,195753.000,02,02,2018,,*4F
$GPGGA,195753.000,4614.0195,N,00603.1337,E,1,9,1.11,480.1,M,48.2,M,,*52
Event: sub second micros:24283644/41998356; Event Count:30
Event: sub second micros:30129320/41998356; Event Count:31
PPS: GPS lock:1;
Pressure: 963.441895;
Altitude: 423.118561;
TemperatureCBaro: 26.216667;
AccelX: -0.187951;
AccelY: 0.034118;
AccelZ: 9.716565;
MagX: 0.153813;
MagY: -0.184210;
MagZ: 0.327403;
TemperatureCHumid: 25.973410;
Humidity: 29.079956;
TemperatureC: 25.000000;
$GNZDA,195754.000,02,02,2018,,*48
$GPGGA,195754.000,4614.0195,N,00603.1337,E,1,9,1.11,480.1,M,48.2,M,,*55
PPS: GPS lock:1;
Pressure: 963.404053;
Altitude: 423.446381;
TemperatureCBaro: 26.227083;
AccelX: -0.187352;
AccelY: 0.039506;
AccelZ: 9.725544;
MagX: 0.154424;
MagY: -0.183111;
MagZ: 0.326060;
TemperatureCHumid: 25.984137;
Humidity: 29.064697;
TemperatureC: 25.000000;
$GNZDA,195755.000,02,02,2018,,*49
$GPGGA,195755.000,4614.0195,N,00603.1337,E,1,9,1.11,480.1,M,48.2,M,,*54
PPS: GPS lock:1;
Pressure: 963.379150;
Altitude: 423.662689;
TemperatureCBaro: 26.235416;
AccelX: -0.185556;
AccelY: 0.015563;
AccelZ: 9.578895;
MagX: 0.153691;
MagY: -0.184088;
MagZ: 0.326792;
TemperatureCHumid: 25.994864;
Humidity: 29.049438;
TemperatureC: 25.000000;
$GNZDA,195756.000,02,02,2018,,*4A
$GPGGA,195756.000,4614.0195,N,00603.1337,E,1,9,1.11,480.1,M,48.2,M,,*57
PPS: GPS lock:1;
Pressure: 963.382324;
Altitude: 423.634918;
TemperatureCBaro: 26.241667;
AccelX: -0.196929;
AccelY: 0.026337;
AccelZ: 9.591465;
MagX: 0.153447;
MagY: -0.183355;
MagZ: 0.326670;
TemperatureCHumid: 26.005590;
Humidity: 29.026550;
TemperatureC: 26.000000;
$GNZDA,195757.000,02,02,2018,,*4B
$GPGGA,195757.000,4614.0195,N,00603.1337,E,1,9,1.11,480.1,M,48.2,M,,*56
PPS: GPS lock:1;
Pressure: 963.373779;
Altitude: 423.709290;
TemperatureCBaro: 26.252083;
AccelX: -0.186155;
AccelY: 0.010774;
AccelZ: 9.692024;
MagX: 0.153081;
MagY: -0.183844;
MagZ: 0.327525;
TemperatureCHumid: 25.994864;
Humidity: 29.034180;
TemperatureC: 26.000000;
$GNZDA,195758.000,02,02,2018,,*44
$GPGGA,195758.000,4614.0195,N,00603.1337,E,1,9,1.11,480.1,M,48.2,M,,*59
Event: sub second micros:18832655/41998356; Event Count:32
PPS: GPS lock:1;
Pressure: 963.416260;
Altitude: 423.340607;
TemperatureCBaro: 26.258333;
AccelX: -0.213689;
AccelY: 0.034717;
AccelZ: 9.719558;
MagX: 0.153203;
MagY: -0.182989;
MagZ: 0.325694;
TemperatureCHumid: 26.016310;
Humidity: 29.011292;
TemperatureC: 26.000000;
$GNZDA,195759.000,02,02,2018,,*45
$GPGGA,195759.000,4614.0195,N,00603.1337,E,1,9,1.11,480.1,M,48.2,M,,*58
Event: sub second micros:6622657/41998355; Event Count:33
PPS: GPS lock:1;
Pressure: 963.373291;
Altitude: 423.713470;
TemperatureCBaro: 26.264584;
AccelX: -0.216083;
AccelY: 0.037710;
AccelZ: 9.724945;
MagX: 0.153691;
MagY: -0.184210;
MagZ: 0.327891;
TemperatureCHumid: 26.005590;
Humidity: 29.003662;
TemperatureC: 26.000000;
$GNZDA,195800.000,02,02,2018,,*46
$GPGGA,195800.000,4614.0195,N,00603.1337,E,1,9,1.11,480.1,M,48.2,M,,*5B
PPS: GPS lock:1;
Pressure: 963.432129;
Altitude: 423.203400;
TemperatureCBaro: 26.272917;
AccelX: -0.208900;
AccelY: 0.029928;
AccelZ: 9.720756;
MagX: 0.153569;
MagY: -0.182623;
MagZ: 0.324839;
TemperatureCHumid: 26.016310;
Humidity: 28.980774;
TemperatureC: 26.000000;
$GNZDA,195801.000,02,02,2018,,*47
$GPGGA,195801.000,4614.0195,N,00603.1337,E,1,9,1.11,480.1,M,48.2,M,,*5A
PPS: GPS lock:1;
Pressure: 963.429932;
Altitude: 423.222260;
TemperatureCBaro: 26.281250;
AccelX: -0.204710;
AccelY: 0.023344;
AccelZ: 9.710580;
MagX: 0.154302;
MagY: -0.184698;
MagZ: 0.327769;
TemperatureCHumid: 26.016310;
Humidity: 28.973145;
TemperatureC: 26.000000;
$GNZDA,195802.000,02,02,2018,,*44
$GPGGA,195802.000,4614.0195,N,00603.1337,E,1,9,1.11,480.1,M,48.2,M,,*59
Event: sub second micros:3437655/41998356; Event Count:34
PPS: GPS lock:1;
Pressure: 963.509766;
Altitude: 422.529968;
TemperatureCBaro: 26.291666;
AccelX: -0.213689;
AccelY: 0.031724;
AccelZ: 9.715966;
MagX: 0.154057;
MagY: -0.184210;
MagZ: 0.325694;
TemperatureCHumid: 26.037764;
Humidity: 28.980774;
TemperatureC: 26.000000;
$GNZDA,195803.000,02,02,2018,,*45
$GPGGA,195803.000,4614.0195,N,00603.1337,E,1,9,1.11,480.1,M,48.2,M,,*58
Event: sub second micros:15610324/41998355; Event Count:35
PPS: GPS lock:1;
Pressure: 963.423096;
Altitude: 423.281433;
TemperatureCBaro: 26.302084;
AccelX: -0.223266;
AccelY: 0.038308;
AccelZ: 9.706389;
MagX: 0.153325;
MagY: -0.184210;
MagZ: 0.327280;
TemperatureCHumid: 26.059210;
Humidity: 28.957886;
TemperatureC: 26.000000;
$GNZDA,195804.000,02,02,2018,,*42
$GPGGA,195804.000,4614.0195,N,00603.1337,E,1,9,1.11,480.1,M,48.2,M,,*5F
Event: sub second micros:24667298/41998355; Event Count:36
PPS: GPS lock:1;
Pressure: 963.395508;
Altitude: 423.520752;
TemperatureCBaro: 26.310417;
AccelX: -0.189746;
AccelY: 0.022746;
AccelZ: 9.702799;
MagX: 0.153691;
MagY: -0.183721;
MagZ: 0.325938;
TemperatureCHumid: 26.048491;
Humidity: 28.950256;
TemperatureC: 26.000000;
$GNZDA,195805.000,02,02,2018,,*43
$GPGGA,195805.000,4614.0195,N,00603.1337,E,1,9,1.11,480.1,M,48.2,M,,*5E
Event: sub second micros:23960299/41998355; Event Count:37
PPS: GPS lock:1;
Pressure: 963.387207;
Altitude: 423.592499;
TemperatureCBaro: 26.316668;
AccelX: -0.208302;
AccelY: 0.032323;
AccelZ: 9.718960;
MagX: 0.152470;
MagY: -0.183355;
MagZ: 0.327280;
TemperatureCHumid: 26.080664;
Humidity: 28.934998;
TemperatureC: 26.000000;
$GNZDA,195806.000,02,02,2018,,*40
$GPGGA,195806.000,4614.0195,N,00603.1337,E,1,9,1.11,480.1,M,48.2,M,,*5D
PPS: GPS lock:1;
Pressure: 963.403320;
Altitude: 423.453217;
TemperatureCBaro: 26.327084;
AccelX: -0.191542;
AccelY: 0.019154;
AccelZ: 9.701002;
MagX: 0.152959;
MagY: -0.183721;
MagZ: 0.326670;
TemperatureCHumid: 26.069937;
Humidity: 28.919739;
TemperatureC: 26.000000;
$GNZDA,195807.000,02,02,2018,,*41
$GPGGA,195807.000,4614.0195,N,00603.1337,E,1,9,1.11,480.1,M,48.2,M,,*5C
PPS: GPS lock:1;
Pressure: 963.406982;
Altitude: 423.421265;
TemperatureCBaro: 26.333334;
AccelX: -0.216682;
AccelY: 0.028731;
AccelZ: 9.708784;
MagX: 0.153203;
MagY: -0.184210;
MagZ: 0.327036;
TemperatureCHumid: 26.069937;
Humidity: 28.927368;
TemperatureC: 26.000000;
$GNZDA,195808.000,02,02,2018,,*4E
$GPGGA,195808.000,4614.0195,N,00603.1337,E,1,9,1.11,480.1,M,48.2,M,,*53
PPS: GPS lock:1;
Pressure: 963.426514;
Altitude: 423.252106;
TemperatureCBaro: 26.345833;
AccelX: -0.207703;
AccelY: 0.046090;
AccelZ: 9.709383;
MagX: 0.153325;
MagY: -0.184576;
MagZ: 0.325205;
TemperatureCHumid: 26.102118;
Humidity: 28.889221;
TemperatureC: 26.000000;
$GNZDA,195809.000,02,02,2018,,*4F
$GPGGA,195809.000,4614.0195,N,00603.1337,E,1,9,1.11,480.1,M,48.2,M,,*52
PPS: GPS lock:1;
Pressure: 963.485107;
Altitude: 422.743622;
TemperatureCBaro: 26.354166;
AccelX: -0.199922;
AccelY: 0.031724;
AccelZ: 9.708185;
MagX: 0.154302;
MagY: -0.184576;
MagZ: 0.327403;
TemperatureCHumid: 26.102118;
Humidity: 28.881592;
TemperatureC: 26.000000;
$GNZDA,195810.000,02,02,2018,,*47
$GPGGA,195810.000,4614.0195,N,00603.1337,E,1,9,1.11,480.1,M,48.2,M,,*5A
PPS: GPS lock:1;
Pressure: 963.438965;
Altitude: 423.143707;
TemperatureCBaro: 26.362499;
AccelX: -0.217280;
AccelY: 0.043696;
AccelZ: 9.775225;
MagX: 0.153691;
MagY: -0.183233;
MagZ: 0.325816;
TemperatureCHumid: 26.112837;
Humidity: 28.881592;
TemperatureC: 26.000000;
$GNZDA,195811.000,02,02,2018,,*46
$GPGGA,195811.000,4614.0195,N,00603.1337,E,1,9,1.11,480.1,M,48.2,M,,*5B
PPS: GPS lock:1;
Pressure: 963.426025;
Altitude: 423.256287;
TemperatureCBaro: 26.362499;
AccelX: -0.217280;
AccelY: 0.046090;
AccelZ: 9.712974;
MagX: 0.153691;
MagY: -0.183721;
MagZ: 0.327036;
TemperatureCHumid: 26.112837;
Humidity: 28.866333;
TemperatureC: 26.000000;
$GNZDA,195812.000,02,02,2018,,*45
$GPGGA,195812.000,4614.0195,N,00603.1337,E,1,9,1.12,480.1,M,48.2,M,,*5B
Event: sub second micros:9108186/41998355; Event Count:38
PPS: GPS lock:1;
Pressure: 963.414795;
Altitude: 423.353699;
TemperatureCBaro: 26.379168;
AccelX: -0.213090;
AccelY: 0.038308;
AccelZ: 9.715368;
MagX: 0.153203;
MagY: -0.183966;
MagZ: 0.325205;
TemperatureCHumid: 26.112837;
Humidity: 28.858704;
TemperatureC: 26.000000;
$GNZDA,195813.000,02,02,2018,,*44
$GPGGA,195813.000,4614.0195,N,00603.1337,E,1,9,1.11,480.1,M,48.2,M,,*59
PPS: GPS lock:1;
Event: sub second micros:25628778/41998354; Event Count:39
Pressure: 963.410156;
Altitude: 423.393494;
TemperatureCBaro: 26.389584;
AccelX: -0.217280;
AccelY: 0.031724;
AccelZ: 9.690228;
MagX: 0.153935;
MagY: -0.184332;
MagZ: 0.327158;
TemperatureCHumid: 26.123564;
Humidity: 28.843445;
TemperatureC: 26.000000;
$GNZDA,195814.000,02,02,2018,,*43
$GPGGA,195814.000,4614.0195,N,00603.1337,E,1,9,1.11,480.1,M,48.2,M,,*5E
Event: sub second micros:25486995/41998355; Event Count:40
PPS: GPS lock:1;
Pressure: 963.405029;
Altitude: 423.438019;
TemperatureCBaro: 26.397917;
AccelX: -0.191542;
AccelY: 0.013169;
AccelZ: 9.710580;
MagX: 0.153203;
MagY: -0.184210;
MagZ: 0.323862;
TemperatureCHumid: 26.145018;
Humidity: 28.820557;
TemperatureC: 26.000000;
$GNZDA,195815.000,02,02,2018,,*42
$GPGGA,195815.000,4614.0195,N,00603.1337,E,1,9,1.11,480.1,M,48.2,M,,*5F
Event: sub second micros:18993422/41998354; Event Count:41
PPS: GPS lock:1;
Pressure: 963.406982;
Altitude: 423.421265;
TemperatureCBaro: 26.402082;
AccelX: -0.184958;
AccelY: 0.023344;
AccelZ: 9.606429;
MagX: 0.153691;
MagY: -0.184088;
MagZ: 0.328867;
TemperatureCHumid: 26.166464;
Humidity: 28.820557;
TemperatureC: 26.000000;
$GNZDA,195816.000,02,02,2018,,*41
$GPGGA,195816.000,4614.0195,N,00603.1337,E,1,9,1.11,480.1,M,48.2,M,,*5C
PPS: GPS lock:1;
Pressure: 963.419434;
Altitude: 423.313385;
TemperatureCBaro: 26.412500;
AccelX: -0.203513;
AccelY: 0.026936;
AccelZ: 9.718960;
MagX: 0.152959;
MagY: -0.183477;
MagZ: 0.326426;
TemperatureCHumid: 26.166464;
Humidity: 28.820557;
TemperatureC: 26.000000;
$GNZDA,195817.000,02,02,2018,,*40
$GPGGA,195817.000,4614.0195,N,00603.1337,E,1,9,1.11,480.1,M,48.2,M,,*5D
PPS: GPS lock:1;
Pressure: 963.390625;
Altitude: 423.563171;
TemperatureCBaro: 26.414583;
AccelX: -0.217280;
AccelY: 0.042498;
AccelZ: 9.717762;
MagX: 0.153935;
MagY: -0.183721;
MagZ: 0.327403;
TemperatureCHumid: 26.155737;
Humidity: 28.797668;
TemperatureC: 26.000000;
$GNZDA,195818.000,02,02,2018,,*4F
$GPGGA,195818.000,4614.0195,N,00603.1337,E,1,9,1.12,480.1,M,48.2,M,,*51
Event: sub second micros:38620419/41998355; Event Count:42
PPS: GPS lock:1;
Pressure: 963.484375;
Altitude: 422.750427;
TemperatureCBaro: 26.424999;
AccelX: -0.209499;
AccelY: 0.016161;
AccelZ: 9.703996;
MagX: 0.153325;
MagY: -0.182989;
MagZ: 0.325449;
TemperatureCHumid: 26.177191;
Humidity: 28.782410;
TemperatureC: 26.000000;
$GNZDA,195819.000,02,02,2018,,*4E
$GPGGA,195819.000,4614.0195,N,00603.1337,E,1,9,1.11,480.1,M,48.2,M,,*53
Event: sub second micros:3060561/41998354; Event Count:43
Event: sub second micros:23528911/41998354; Event Count:44
Event: sub second micros:39275154/41998354; Event Count:45
PPS: GPS lock:1;
Pressure: 963.433350;
Altitude: 423.192413;
TemperatureCBaro: 26.435417;
AccelX: -0.199323;
AccelY: 0.027534;
AccelZ: 9.757268;
MagX: 0.151250;
MagY: -0.184210;
MagZ: 0.326182;
TemperatureCHumid: 26.187918;
Humidity: 28.790039;
TemperatureC: 26.000000;
$GNZDA,195820.000,02,02,2018,,*44
$GPGGA,195820.000,4614.0195,N,00603.1337,E,1,9,1.11,480.1,M,48.2,M,,*59
PPS: GPS lock:1;
Pressure: 963.373291;
Altitude: 423.713470;
TemperatureCBaro: 26.441668;
AccelX: -0.222069;
AccelY: 0.020950;
AccelZ: 9.732727;
MagX: 0.153203;
MagY: -0.183111;
MagZ: 0.325694;
TemperatureCHumid: 26.198637;
Humidity: 28.759521;
TemperatureC: 26.000000;
$GNZDA,195821.000,02,02,2018,,*45
$GPGGA,195821.000,4614.0195,N,00603.1337,E,1,9,1.11,480.1,M,48.2,M,,*58
PPS: GPS lock:1;
Pressure: 963.377930;
Altitude: 423.673157;
TemperatureCBaro: 26.450001;
AccelX: -0.222069;
AccelY: 0.025738;
AccelZ: 9.677060;
MagX: 0.154057;
MagY: -0.183844;
MagZ: 0.327403;
TemperatureCHumid: 26.198637;
Humidity: 28.751892;
TemperatureC: 26.000000;
$GNZDA,195822.000,02,02,2018,,*46
$GPGGA,195822.000,4614.0195,N,00603.1337,E,1,9,1.11,480.1,M,48.2,M,,*5B
PPS: GPS lock:1;
Pressure: 963.413818;
Altitude: 423.362091;
TemperatureCBaro: 26.454166;
AccelX: -0.202915;
AccelY: 0.025738;
AccelZ: 9.712376;
MagX: 0.152715;
MagY: -0.184088;
MagZ: 0.324595;
TemperatureCHumid: 26.220091;
Humidity: 28.744263;
TemperatureC: 26.000000;
$GNZDA,195823.000,02,02,2018,,*47
$GPGGA,195823.000,4614.0195,N,00603.1337,E,1,9,1.11,480.1,M,48.2,M,,*5A
PPS: GPS lock:1;
Event: sub second micros:5276855/41998354; Event Count:46
Pressure: 963.415527;
Altitude: 423.346893;
TemperatureCBaro: 26.462500;
AccelX: -0.208302;
AccelY: 0.020950;
AccelZ: 9.713573;
MagX: 0.153081;
MagY: -0.183721;
MagZ: 0.327891;
TemperatureCHumid: 26.198637;
Humidity: 28.729004;
TemperatureC: 26.000000;
$GNZDA,195824.000,02,02,2018,,*40
$GPGGA,195824.000,4614.0195,N,00603.1337,E,1,9,1.11,480.1,M,48.2,M,,*5D
Event: sub second micros:7900112/41998354; Event Count:47
Event: sub second micros:36047797/41998354; Event Count:48
PPS: GPS lock:1;
Pressure: 963.411621;
Altitude: 423.380920;
TemperatureCBaro: 26.470833;
AccelX: -0.192739;
AccelY: 0.026337;
AccelZ: 9.747092;
MagX: 0.153813;
MagY: -0.183477;
MagZ: 0.325816;
TemperatureCHumid: 26.252264;
Humidity: 28.736633;
TemperatureC: 26.000000;
$GNZDA,195825.000,02,02,2018,,*41
$GPGGA,195825.000,4614.0195,N,00603.1337,E,1,8,1.37,480.1,M,48.2,M,,*59
PPS: GPS lock:1;
Pressure: 963.396240;
Altitude: 423.514465;
TemperatureCBaro: 26.477083;
AccelX: -0.199922;
AccelY: 0.020351;
AccelZ: 9.720756;
MagX: 0.153691;
MagY: -0.184576;
MagZ: 0.327280;
TemperatureCHumid: 26.220091;
Humidity: 28.706116;
TemperatureC: 26.000000;
$GNZDA,195826.000,02,02,2018,,*42
$GPGGA,195826.000,4614.0195,N,00603.1337,E,1,8,1.37,480.1,M,48.2,M,,*5A
PPS: GPS lock:1;
Pressure: 963.364014;
Altitude: 423.793610;
TemperatureCBaro: 26.487499;
AccelX: -0.214288;
AccelY: 0.042498;
AccelZ: 9.717164;
MagX: 0.152837;
MagY: -0.183721;
MagZ: 0.324961;
TemperatureCHumid: 26.252264;
Humidity: 28.690857;
TemperatureC: 26.000000;
$GNZDA,195827.000,02,02,2018,,*43
$GPGGA,195827.000,4614.0195,N,00603.1337,E,1,8,1.37,480.1,M,48.2,M,,*5B
Event: sub second micros:5682096/41998354; Event Count:49
Event: sub second micros:8567424/41998354; Event Count:50
PPS: GPS lock:1;
Pressure: 963.431152;
Altitude: 423.211792;
TemperatureCBaro: 26.491667;
AccelX: -0.204112;
AccelY: 0.022147;
AccelZ: 9.726143;
MagX: 0.153203;
MagY: -0.184210;
MagZ: 0.327158;
TemperatureCHumid: 26.230818;
Humidity: 28.675598;
TemperatureC: 26.000000;
$GNZDA,195828.000,02,02,2018,,*4C
$GPGGA,195828.000,4614.0195,N,00603.1337,E,1,8,1.37,480.1,M,48.2,M,,*54
Event: sub second micros:31483983/41998354; Event Count:51
PPS: GPS lock:1;
Pressure: 963.397461;
Altitude: 423.503998;
TemperatureCBaro: 26.497917;
AccelX: -0.207703;
AccelY: 0.022147;
AccelZ: 9.728537;
MagX: 0.153813;
MagY: -0.183233;
MagZ: 0.325083;
TemperatureCHumid: 26.273718;
Humidity: 28.667969;
TemperatureC: 26.000000;
$GNZDA,195829.000,02,02,2018,,*4D
$GPGGA,195829.000,4614.0195,N,00603.1337,E,1,8,1.37,480.1,M,48.2,M,,*55
Event: sub second micros:23262652/41998353; Event Count:52
Event: sub second micros:30105981/41998353; Event Count:53
PPS: GPS lock:1;
Pressure: 963.557373;
Altitude: 422.117340;
TemperatureCBaro: 26.514584;
AccelX: -0.198725;
AccelY: 0.029330;
AccelZ: 9.714171;
MagX: 0.153447;
MagY: -0.183844;
MagZ: 0.326914;
TemperatureCHumid: 26.284437;
Humidity: 28.660339;
TemperatureC: 26.000000;
$GNZDA,195830.000,02,02,2018,,*45
$GPGGA,195830.000,4614.0195,N,00603.1337,E,1,8,1.37,480.1,M,48.2,M,,*5D
PPS: GPS lock:1;
Pressure: 963.445801;
Altitude: 423.084534;
TemperatureCBaro: 26.520832;
AccelX: -0.216682;
AccelY: 0.021548;
AccelZ: 9.697411;
MagX: 0.153447;
MagY: -0.182623;
MagZ: 0.325816;
TemperatureCHumid: 26.284437;
Humidity: 28.645081;
TemperatureC: 26.000000;
$GNZDA,195831.000,02,02,2018,,*44
$GPGGA,195831.000,4614.0195,N,00603.1337,E,1,8,1.37,480.1,M,48.2,M,,*5C
PPS: GPS lock:1;
Pressure: 963.406982;
Altitude: 423.421265;
TemperatureCBaro: 26.525000;
AccelX: -0.211295;
AccelY: 0.035316;
AccelZ: 9.729733;
MagX: 0.154180;
MagY: -0.183599;
MagZ: 0.326182;
TemperatureCHumid: 26.295164;
Humidity: 28.637451;
TemperatureC: 26.000000;
$GNZDA,195832.000,02,02,2018,,*47
$GPGGA,195832.000,4614.0195,N,00603.1337,E,1,8,1.37,480.1,M,48.2,M,,*5F
PPS: GPS lock:1;
Pressure: 963.436523;
Altitude: 423.165161;
TemperatureCBaro: 26.537500;
AccelX: -0.210098;
AccelY: 0.033520;
AccelZ: 9.738113;
MagX: 0.153081;
MagY: -0.183355;
MagZ: 0.325083;
TemperatureCHumid: 26.305891;
Humidity: 28.629822;
TemperatureC: 26.000000;
$GNZDA,195833.000,02,02,2018,,*46
$GPGGA,195833.000,4614.0195,N,00603.1337,E,1,8,1.37,480.1,M,48.2,M,,*5E
PPS: GPS lock:1;
Pressure: 963.472412;
Altitude: 422.854095;
TemperatureCBaro: 26.537500;
AccelX: -0.202316;
AccelY: 0.045491;
AccelZ: 9.723150;
MagX: 0.152593;
MagY: -0.184454;
MagZ: 0.326914;
TemperatureCHumid: 26.305891;
Humidity: 28.606934;
TemperatureC: 26.000000;
$GNZDA,195834.000,02,02,2018,,*41
$GPGGA,195834.000,4614.0195,N,00603.1337,E,1,8,1.37,480.1,M,48.2,M,,*59
PPS: GPS lock:1;
Pressure: 963.468750;
Altitude: 422.885529;
TemperatureCBaro: 26.545834;
AccelX: -0.196331;
AccelY: 0.039506;
AccelZ: 9.703397;
MagX: 0.153081;
MagY: -0.183355;
MagZ: 0.325571;
TemperatureCHumid: 26.327337;
Humidity: 28.622192;
TemperatureC: 26.000000;
$GNZDA,195835.000,02,02,2018,,*40
$GPGGA,195835.000,4614.0195,N,00603.1337,E,1,9,1.11,480.1,M,48.2,M,,*5D
PPS: GPS lock:1;
Pressure: 963.395264;
Altitude: 423.522858;
TemperatureCBaro: 26.558334;
AccelX: -0.208900;
AccelY: 0.038308;
AccelZ: 9.692622;
MagX: 0.154302;
MagY: -0.183477;
MagZ: 0.325694;
TemperatureCHumid: 26.338064;
Humidity: 28.606934;
TemperatureC: 26.000000;
$GNZDA,195836.000,02,02,2018,,*43
$GPGGA,195836.000,4614.0195,N,00603.1337,E,1,9,1.11,480.1,M,48.2,M,,*5E
Event: sub second micros:20843067/41998353; Event Count:54
Event: sub second micros:23181798/41998353; Event Count:55
Event: sub second micros:24103432/41998353; Event Count:56
PPS: GPS lock:1;
Pressure: 963.438721;
Altitude: 423.145782;
TemperatureCBaro: 26.570833;
AccelX: -0.179571;
AccelY: 0.034118;
AccelZ: 9.752480;
MagX: 0.153447;
MagY: -0.184088;
MagZ: 0.324961;
TemperatureCHumid: 26.338064;
Humidity: 28.599304;
TemperatureC: 26.000000;
$GNZDA,195837.000,02,02,2018,,*42
$GPGGA,195837.000,4614.0195,N,00603.1337,E,1,9,1.11,480.1,M,48.2,M,,*5F
PPS: GPS lock:1;
Pressure: 963.386963;
Altitude: 423.594604;
TemperatureCBaro: 26.579166;
AccelX: -0.220872;
AccelY: 0.033520;
AccelZ: 9.711777;
MagX: 0.153569;
MagY: -0.183599;
MagZ: 0.326792;
TemperatureCHumid: 26.359518;
Humidity: 28.576416;
TemperatureC: 26.000000;
$GNZDA,195838.000,02,02,2018,,*4D
$GPGGA,195838.000,4614.0195,N,00603.1337,E,1,9,1.11,480.1,M,48.2,M,,*50
Event: sub second micros:17332109/41998352; Event Count:57
PPS: GPS lock:1;
Pressure: 963.399414;
Altitude: 423.486725;
TemperatureCBaro: 26.579166;
AccelX: -0.211893;
AccelY: 0.043097;
AccelZ: 9.693221;
MagX: 0.153447;
MagY: -0.180303;
MagZ: 0.324473;
TemperatureCHumid: 26.348791;
Humidity: 28.568787;
TemperatureC: 26.000000;
$GNZDA,195839.000,02,02,2018,,*4C
$GPGGA,195839.000,4614.0195,N,00603.1337,E,1,9,1.11,480.1,M,48.2,M,,*51
PPS: GPS lock:1;
Pressure: 963.420410;
Altitude: 423.304993;
TemperatureCBaro: 26.587500;
AccelX: -0.217280;
AccelY: 0.019154;
AccelZ: 9.707587;
MagX: 0.153081;
MagY: -0.184210;
MagZ: 0.327158;
TemperatureCHumid: 26.338064;
Humidity: 28.553528;
TemperatureC: 26.000000;
$GNZDA,195840.000,02,02,2018,,*42
$GPGGA,195840.000,4614.0195,N,00603.1337,E,1,9,1.11,480.1,M,48.2,M,,*5F
Event: sub second micros:16704113/41998353; Event Count:58
PPS: GPS lock:1;
Pressure: 963.442383;
Altitude: 423.114380;
TemperatureCBaro: 26.600000;
AccelX: -0.210098;
AccelY: 0.015563;
AccelZ: 9.695616;
MagX: 0.153813;
MagY: -0.183355;
MagZ: 0.325327;
TemperatureCHumid: 26.370245;
Humidity: 28.538269;
TemperatureC: 26.000000;
$GNZDA,195841.000,02,02,2018,,*43
$GPGGA,195841.000,4614.0195,N,00603.1337,E,1,9,1.11,480.1,M,48.2,M,,*5E
PPS: GPS lock:1;
Pressure: 963.392578;
Altitude: 423.545898;
TemperatureCBaro: 26.602083;
AccelX: -0.208900;
AccelY: 0.018556;
AccelZ: 9.713573;
MagX: 0.153813;
MagY: -0.184210;
MagZ: 0.326304;
TemperatureCHumid: 26.370245;
Humidity: 28.515381;
TemperatureC: 26.000000;
$GNZDA,195842.000,02,02,2018,,*40
$GPGGA,195842.000,4614.0195,N,00603.1337,E,1,9,1.11,480.1,M,48.2,M,,*5D
PPS: GPS lock:1;
Pressure: 963.438477;
Altitude: 423.147888;
TemperatureCBaro: 26.610416;
AccelX: -0.220872;
AccelY: 0.022746;
AccelZ: 9.717164;
MagX: 0.153691;
MagY: -0.183599;
MagZ: 0.326182;
TemperatureCHumid: 26.370245;
Humidity: 28.515381;
TemperatureC: 26.000000;
$GNZDA,195843.000,02,02,2018,,*41
$GPGGA,195843.000,4614.0195,N,00603.1337,E,1,9,1.11,480.1,M,48.2,M,,*5C
PPS: GPS lock:1;
Pressure: 963.408936;
Altitude: 423.404510;
TemperatureCBaro: 26.616667;
AccelX: -0.210696;
AccelY: 0.034118;
AccelZ: 9.782408;
MagX: 0.152348;
MagY: -0.184454;
MagZ: 0.325571;
TemperatureCHumid: 26.380964;
Humidity: 28.500122;
TemperatureC: 26.000000;
$GNZDA,195844.000,02,02,2018,,*46
$GPGGA,195844.000,4614.0195,N,00603.1337,E,1,9,1.11,480.1,M,48.2,M,,*5B
PPS: GPS lock:1;
Pressure: 963.443604;
Altitude: 423.103912;
TemperatureCBaro: 26.629166;
AccelX: -0.212492;
AccelY: 0.043097;
AccelZ: 9.715966;
MagX: 0.152470;
MagY: -0.183966;
MagZ: 0.324107;
TemperatureCHumid: 26.391691;
Humidity: 28.492493;
TemperatureC: 26.000000;
$GNZDA,195845.000,02,02,2018,,*47
$GPGGA,195845.000,4614.0195,N,00603.1337,E,1,9,1.11,480.1,M,48.2,M,,*5A
PPS: GPS lock:1;
Pressure: 963.450684;
Altitude: 423.042114;
TemperatureCBaro: 26.635418;
AccelX: -0.227456;
AccelY: 0.025140;
AccelZ: 9.689032;
MagX: 0.153569;
MagY: -0.182501;
MagZ: 0.325571;
TemperatureCHumid: 26.391691;
Humidity: 28.492493;
TemperatureC: 26.000000;
$GNZDA,195846.000,02,02,2018,,*44
$GPGGA,195846.000,4614.0195,N,00603.1337,E,1,9,1.11,480.1,M,48.2,M,,*59
PPS: GPS lock:1;
Pressure: 963.428955;
Altitude: 423.230621;
TemperatureCBaro: 26.637501;
AccelX: -0.221470;
AccelY: 0.041900;
AccelZ: 9.705193;
MagX: 0.152104;
MagY: -0.183966;
MagZ: 0.321787;
TemperatureCHumid: 26.402418;
Humidity: 28.477234;
TemperatureC: 26.000000;
$GNZDA,195847.000,02,02,2018,,*45
$GPGGA,195847.000,4614.0195,N,00603.1337,E,1,9,1.11,480.1,M,48.2,M,,*58
PPS: GPS lock:1;
Pressure: 963.500732;
Altitude: 422.608521;
TemperatureCBaro: 26.647917;
AccelX: -0.198126;
AccelY: 0.012570;
AccelZ: 9.702799;
MagX: 0.153813;
MagY: -0.184210;
MagZ: 0.326304;
TemperatureCHumid: 26.413145;
Humidity: 28.477234;
TemperatureC: 26.000000;
$GNZDA,195848.000,02,02,2018,,*4A
$GPGGA,195848.000,4614.0195,N,00603.1337,E,1,9,1.11,480.1,M,48.2,M,,*57
PPS: GPS lock:1;
Pressure: 963.458252;
Altitude: 422.976654;
TemperatureCBaro: 26.656250;
AccelX: -0.225660;
AccelY: 0.022746;
AccelZ: 9.703397;
MagX: 0.153447;
MagY: -0.183111;
MagZ: 0.323985;
TemperatureCHumid: 26.423864;
Humidity: 28.446716;
TemperatureC: 26.000000;
$GNZDA,195849.000,02,02,2018,,*4B
$GPGGA,195849.000,4614.0195,N,00603.1337,E,1,9,1.11,480.1,M,48.2,M,,*56
Event: sub second micros:2741370/41998352; Event Count:59
Event: sub second micros:24513915/41998352; Event Count:60
PPS: GPS lock:1;
Pressure: 963.454102;
Altitude: 423.012787;
TemperatureCBaro: 26.666668;
AccelX: -0.197528;
AccelY: 0.014366;
AccelZ: 9.689630;
MagX: 0.153691;
MagY: -0.184088;
MagZ: 0.325449;
TemperatureCHumid: 26.445318;
Humidity: 28.454346;
TemperatureC: 26.000000;
$GNZDA,195850.000,02,02,2018,,*43
$GPGGA,195850.000,4614.0195,N,00603.1337,E,1,9,1.10,480.1,M,48.2,M,,*5F
PPS: GPS lock:1;
Pressure: 963.444336;
Altitude: 423.097107;
TemperatureCBaro: 26.670834;
AccelX: -0.205908;
AccelY: 0.028731;
AccelZ: 9.686637;
MagX: 0.153325;
MagY: -0.183599;
MagZ: 0.324839;
TemperatureCHumid: 26.466764;
Humidity: 28.416199;
TemperatureC: 26.000000;
$GNZDA,195851.000,02,02,2018,,*42
$GPGGA,195851.000,4614.0195,N,00603.1337,E,1,9,1.11,480.1,M,48.2,M,,*5F
Event: sub second micros:24159306/41998353; Event Count:61
PPS: GPS lock:1;
Pressure: 963.419922;
Altitude: 423.309174;
TemperatureCBaro: 26.677082;
AccelX: -0.205908;
AccelY: 0.017957;
AccelZ: 9.706389;
MagX: 0.155278;
MagY: -0.184332;
MagZ: 0.327280;
TemperatureCHumid: 26.456045;
Humidity: 28.408569;
TemperatureC: 26.000000;
$GNZDA,195852.000,02,02,2018,,*41
$GPGGA,195852.000,4614.0195,N,00603.1337,E,1,9,1.11,480.1,M,48.2,M,,*5C
Event: sub second micros:845705/41998352; Event Count:62
Event: sub second micros:32908916/41998352; Event Count:63
PPS: GPS lock:1;
Pressure: 963.511963;
Altitude: 422.511108;
TemperatureCBaro: 26.687500;
AccelX: -0.225062;
AccelY: 0.031724;
AccelZ: 9.735720;
MagX: 0.153691;
MagY: -0.183599;
MagZ: 0.324961;
TemperatureCHumid: 26.456045;
Humidity: 28.408569;
TemperatureC: 26.000000;
$GNZDA,195853.000,02,02,2018,,*40
$GPGGA,195853.000,4614.0195,N,00603.1337,E,1,9,1.11,480.1,M,48.2,M,,*5D
PPS: GPS lock:1;
Pressure: 963.359863;
Altitude: 423.829742;
TemperatureCBaro: 26.693750;
AccelX: -0.192739;
AccelY: 0.017957;
AccelZ: 9.718361;
MagX: 0.153325;
MagY: -0.184210;
MagZ: 0.327769;
TemperatureCHumid: 26.488218;
Humidity: 28.393311;
TemperatureC: 26.000000;
$GNZDA,195854.000,02,02,2018,,*47
$GPGGA,195854.000,4614.0195,N,00603.1337,E,1,9,1.12,480.1,M,48.2,M,,*59
Event: sub second micros:19759155/41998352; Event Count:64
Event: sub second micros:28852493/41998352; Event Count:65
PPS: GPS lock:1;
Pressure: 963.448730;
Altitude: 423.059387;
TemperatureCBaro: 26.702084;
AccelX: -0.193936;
AccelY: 0.020351;
AccelZ: 9.529812;
MagX: 0.153813;
MagY: -0.183355;
MagZ: 0.323985;
TemperatureCHumid: 26.466764;
Humidity: 28.370422;
TemperatureC: 26.000000;
$GNZDA,195855.000,02,02,2018,,*46
$GPGGA,195855.000,4614.0195,N,00603.1337,E,1,9,1.10,480.1,M,48.2,M,,*5A
PPS: GPS lock:1;
Pressure: 963.407715;
Altitude: 423.414978;
TemperatureCBaro: 26.704166;
AccelX: -0.196331;
AccelY: 0.020950;
AccelZ: 9.710580;
MagX: 0.152837;
MagY: -0.183233;
MagZ: 0.326060;
TemperatureCHumid: 26.498945;
Humidity: 28.393311;
TemperatureC: 26.000000;
$GNZDA,195856.000,02,02,2018,,*45
$GPGGA,195856.000,4614.0195,N,00603.1337,E,1,9,1.13,480.1,M,48.2,M,,*5A
Event: sub second micros:16572580/41998353; Event Count:66
PPS: GPS lock:1;
Pressure: 963.446045;
Altitude: 423.082428;
TemperatureCBaro: 26.718750;
AccelX: -0.209499;
AccelY: 0.023344;
AccelZ: 9.682447;
MagX: 0.153203;
MagY: -0.183599;
MagZ: 0.325449;
TemperatureCHumid: 26.509665;
Humidity: 28.355164;
TemperatureC: 26.000000;
$GNZDA,195857.000,02,02,2018,,*44
$GPGGA,195857.000,4614.0195,N,00603.1337,E,1,9,1.10,480.1,M,48.2,M,,*58
Event: sub second micros:26943029/41998352; Event Count:67
PPS: GPS lock:1;
Pressure: 963.450195;
Altitude: 423.046295;
TemperatureCBaro: 26.727083;
AccelX: -0.220273;
AccelY: 0.029928;
AccelZ: 9.710580;
MagX: 0.153569;
MagY: -0.183599;
MagZ: 0.327403;
TemperatureCHumid: 26.509665;
Humidity: 28.347534;
TemperatureC: 26.000000;
$GNZDA,195858.000,02,02,2018,,*4B
$GPGGA,195858.000,4614.0195,N,00603.1337,E,1,9,1.10,480.1,M,48.2,M,,*57
PPS: GPS lock:1;
Pressure: 963.388428;
Altitude: 423.582031;
TemperatureCBaro: 26.731251;
AccelX: -0.202915;
AccelY: 0.034118;
AccelZ: 9.706988;
MagX: 0.153569;
MagY: -0.184088;
MagZ: 0.324229;
TemperatureCHumid: 26.520391;
Humidity: 28.339905;
TemperatureC: 26.000000;
$GNZDA,195859.000,02,02,2018,,*4A
$GPGGA,195859.000,4614.0195,N,00603.1337,E,1,9,1.12,480.1,M,48.2,M,,*54
PPS: GPS lock:1;
Pressure: 963.530762;
Altitude: 422.347748;
TemperatureCBaro: 26.741667;
AccelX: -0.205309;
AccelY: 0.020351;
AccelZ: 9.703996;
MagX: 0.153935;
MagY: -0.183844;
MagZ: 0.326914;
TemperatureCHumid: 26.541845;
Humidity: 28.332275;
TemperatureC: 26.000000;
$GNZDA,195900.000,02,02,2018,,*47
$GPGGA,195900.000,4614.0195,N,00603.1337,E,1,9,1.13,480.1,M,48.2,M,,*58
Event: sub second micros:16332236/41998352; Event Count:68
Event: sub second micros:35792996/41998352; Event Count:69
PPS: GPS lock:1;
Pressure: 963.417236;
Altitude: 423.332214;
TemperatureCBaro: 26.754166;
AccelX: -0.201718;
AccelY: 0.004789;
AccelZ: 9.700404;
MagX: 0.152470;
MagY: -0.183599;
MagZ: 0.323740;
TemperatureCHumid: 26.541845;
Humidity: 28.309387;
TemperatureC: 26.000000;
$GNZDA,195901.000,02,02,2018,,*46
$GPGGA,195901.000,4614.0195,N,00603.1337,E,1,10,1.04,480.1,M,48.2,M,,*67
PPS: GPS lock:1;
Pressure: 963.416504;
Altitude: 423.338501;
TemperatureCBaro: 26.758333;
AccelX: -0.210696;
AccelY: 0.011373;
AccelZ: 9.670476;
MagX: 0.154057;
MagY: -0.183966;
MagZ: 0.326426;
TemperatureCHumid: 26.563292;
Humidity: 28.301758;
TemperatureC: 26.000000;
$GNZDA,195902.000,02,02,2018,,*45
$GPGGA,195902.000,4614.0195,N,00603.1337,E,1,10,1.02,480.1,M,48.2,M,,*62
Event: sub second micros:6729894/41998352; Event Count:70
PPS: GPS lock:1;
Pressure: 963.429199;
Altitude: 423.228546;
TemperatureCBaro: 26.764584;
AccelX: -0.189148;
AccelY: 0.042498;
AccelZ: 9.726741;
MagX: 0.153325;
MagY: -0.182867;
MagZ: 0.324839;
TemperatureCHumid: 26.552565;
Humidity: 28.301758;
TemperatureC: 26.000000;
$GNZDA,195903.000,02,02,2018,,*44
$GPGGA,195903.000,4614.0195,N,00603.1337,E,1,10,1.04,480.1,M,48.2,M,,*65
PPS: GPS lock:1;
Pressure: 963.400879;
Altitude: 423.474152;
TemperatureCBaro: 26.772917;
AccelX: -0.189746;
AccelY: 0.034118;
AccelZ: 9.742304;
MagX: 0.153569;
MagY: -0.183844;
MagZ: 0.326670;
TemperatureCHumid: 26.563292;
Humidity: 28.286499;
TemperatureC: 26.000000;
$GNZDA,195904.000,02,02,2018,,*43
$GPGGA,195904.000,4614.0195,N,00603.1337,E,1,10,1.04,480.1,M,48.2,M,,*62
Event: sub second micros:26026130/41998351; Event Count:71
PPS: GPS lock:1;
Pressure: 963.479736;
Altitude: 422.790222;
TemperatureCBaro: 26.781250;
AccelX: -0.215485;
AccelY: 0.033520;
AccelZ: 9.718361;
MagX: 0.153325;
MagY: -0.182745;
MagZ: 0.326304;
TemperatureCHumid: 26.584745;
Humidity: 28.271240;
TemperatureC: 26.000000;
$GNZDA,195905.000,02,02,2018,,*42
$GPGGA,195905.000,4614.0195,N,00603.1337,E,1,10,1.02,480.1,M,48.2,M,,*65
PPS: GPS lock:1;
Pressure: 963.456299;
Altitude: 422.993408;
TemperatureCBaro: 26.789583;
AccelX: -0.205309;
AccelY: 0.033520;
AccelZ: 9.730931;
MagX: 0.153203;
MagY: -0.184454;
MagZ: 0.323862;
TemperatureCHumid: 26.584745;
Humidity: 28.271240;
TemperatureC: 26.000000;
$GNZDA,195906.000,02,02,2018,,*41
$GPGGA,195906.000,4614.0195,N,00603.1337,E,1,10,1.04,480.1,M,48.2,M,,*60
PPS: GPS lock:1;
Pressure: 963.387695;
Altitude: 423.588318;
TemperatureCBaro: 26.791668;
AccelX: -0.202316;
AccelY: 0.029928;
AccelZ: 9.663293;
MagX: 0.153325;
MagY: -0.183111;
MagZ: 0.326426;
TemperatureCHumid: 26.595465;
Humidity: 28.255981;
TemperatureC: 26.000000;
$GNZDA,195907.000,02,02,2018,,*40
$GPGGA,195907.000,4614.0195,N,00603.1337,E,1,10,1.02,480.1,M,48.2,M,,*67
Event: sub second micros:3770470/41998352; Event Count:72
PPS: GPS lock:1;
Pressure: 963.462646;
Altitude: 422.938416;
TemperatureCBaro: 26.806250;
AccelX: -0.197528;
AccelY: 0.045491;
AccelZ: 9.699206;
MagX: 0.152715;
MagY: -0.183233;
MagZ: 0.325205;
TemperatureCHumid: 26.595465;
Humidity: 28.240723;
TemperatureC: 26.000000;
$GNZDA,195908.000,02,02,2018,,*4F
$GPGGA,195908.000,4614.0195,N,00603.1337,E,1,10,1.02,480.1,M,48.2,M,,*68
PPS: GPS lock:1;
Pressure: 963.422363;
Altitude: 423.287720;
TemperatureCBaro: 26.808334;
AccelX: -0.214288;
AccelY: 0.035914;
AccelZ: 9.732727;
MagX: 0.153691;
MagY: -0.182989;
MagZ: 0.325449;
TemperatureCHumid: 26.595465;
Humidity: 28.225464;
TemperatureC: 26.000000;
$GNZDA,195909.000,02,02,2018,,*4E
$GPGGA,195909.000,4614.0195,N,00603.1337,E,1,10,1.04,480.1,M,48.2,M,,*6F
Event: sub second micros:31138858/41998352; Event Count:73
PPS: GPS lock:1;
Pressure: 963.315674;
Altitude: 424.213104;
TemperatureCBaro: 26.812500;
AccelX: -0.213090;
AccelY: 0.016760;
AccelZ: 9.679454;
MagX: 0.153447;
MagY: -0.183233;
MagZ: 0.326060;
TemperatureCHumid: 26.627645;
Humidity: 28.217834;
TemperatureC: 26.000000;
$GNZDA,195910.000,02,02,2018,,*46
$GPGGA,195910.000,4614.0195,N,00603.1337,E,1,10,1.04,480.1,M,48.2,M,,*67
PPS: GPS lock:1;
Pressure: 963.426270;
Altitude: 423.254211;
TemperatureCBaro: 26.825001;
AccelX: -0.208302;
AccelY: 0.032323;
AccelZ: 9.689032;
MagX: 0.153569;
MagY: -0.183599;
MagZ: 0.324229;
TemperatureCHumid: 26.627645;
Humidity: 28.217834;
TemperatureC: 26.000000;
$GNZDA,195911.000,02,02,2018,,*47
$GPGGA,195911.000,4614.0195,N,00603.1337,E,1,10,1.02,480.1,M,48.2,M,,*60
Event: sub second micros:41669750/41998351; Event Count:74
PPS: GPS lock:1;
Pressure: 963.386230;
Altitude: 423.601410;
TemperatureCBaro: 26.829166;
AccelX: -0.213689;
AccelY: 0.018556;
AccelZ: 9.711178;
MagX: 0.153813;
MagY: -0.184576;
MagZ: 0.327891;
TemperatureCHumid: 26.627645;
Humidity: 28.194946;
TemperatureC: 26.000000;
$GNZDA,195912.000,02,02,2018,,*44
$GPGGA,195912.000,4614.0195,N,00603.1337,E,1,10,1.04,480.1,M,48.2,M,,*65
Event: sub second micros:11803484/41998351; Event Count:75
Event: sub second micros:33164179/41998351; Event Count:76
Event: sub second micros:34384346/41998351; Event Count:77
PPS: GPS lock:1;
Pressure: 963.393066;
Altitude: 423.541718;
TemperatureCBaro: 26.833332;
AccelX: -0.204112;
AccelY: 0.036513;
AccelZ: 9.687834;
MagX: 0.153203;
MagY: -0.182989;
MagZ: 0.324595;
TemperatureCHumid: 26.638372;
Humidity: 28.194946;
TemperatureC: 26.000000;
$GNZDA,195913.000,02,02,2018,,*45
$GPGGA,195913.000,4614.0195,N,00603.1337,E,1,10,1.02,480.1,M,48.2,M,,*62
Event: sub second micros:4389933/41998352; Event Count:78
PPS: GPS lock:1;
Pressure: 963.419189;
Altitude: 423.315460;
TemperatureCBaro: 26.841667;
AccelX: -0.198126;
AccelY: 0.038308;
AccelZ: 9.730931;
MagX: 0.153569;
MagY: -0.184088;
MagZ: 0.325938;
TemperatureCHumid: 26.638372;
Humidity: 28.172058;
TemperatureC: 26.000000;
$GNZDA,195914.000,02,02,2018,,*42
$GPGGA,195914.000,4614.0195,N,00603.1337,E,1,10,1.04,480.1,M,48.2,M,,*63
PPS: GPS lock:1;
Pressure: 963.374512;
Altitude: 423.703003;
TemperatureCBaro: 26.847916;
AccelX: -0.208900;
AccelY: 0.029928;
AccelZ: 9.746494;
MagX: 0.152593;
MagY: -0.183233;
MagZ: 0.324107;
TemperatureCHumid: 26.659819;
Humidity: 28.164429;
TemperatureC: 26.000000;
$GNZDA,195915.000,02,02,2018,,*43
$GPGGA,195915.000,4614.0195,N,00603.1337,E,1,10,1.02,480.1,M,48.2,M,,*64
PPS: GPS lock:1;
Pressure: 963.430420;
Altitude: 423.218079;
TemperatureCBaro: 26.858334;
AccelX: -0.213090;
AccelY: 0.023943;
AccelZ: 9.696813;
MagX: 0.153325;
MagY: -0.183111;
MagZ: 0.326548;
TemperatureCHumid: 26.649092;
Humidity: 28.156799;
TemperatureC: 26.000000;
$GNZDA,195916.000,02,02,2018,,*40
$GPGGA,195916.000,4614.0195,N,00603.1337,E,1,10,1.02,480.1,M,48.2,M,,*67
PPS: GPS lock:1;
Pressure: 963.486572;
Altitude: 422.731049;
TemperatureCBaro: 26.870834;
AccelX: -0.209499;
AccelY: 0.025738;
AccelZ: 9.706988;
MagX: 0.153691;
MagY: -0.182745;
MagZ: 0.323740;
TemperatureCHumid: 26.681273;
Humidity: 28.149170;
TemperatureC: 26.000000;
$GNZDA,195917.000,02,02,2018,,*41
$GPGGA,195917.000,4614.0195,N,00603.1337,E,1,10,1.02,480.1,M,48.2,M,,*66
Event: sub second micros:12203573/41998351; Event Count:79
Event: sub second micros:32593253/41998351; Event Count:80
PPS: GPS lock:1;
Pressure: 963.447998;
Altitude: 423.065674;
TemperatureCBaro: 26.872917;
AccelX: -0.198126;
AccelY: 0.034717;
AccelZ: 9.657906;
MagX: 0.153569;
MagY: -0.183721;
MagZ: 0.325694;
TemperatureCHumid: 26.670546;
Humidity: 28.133911;
TemperatureC: 26.000000;
$GNZDA,195918.000,02,02,2018,,*4E
$GPGGA,195918.000,4614.0195,N,00603.1337,E,1,10,1.04,480.1,M,48.2,M,,*6F
PPS: GPS lock:1;
Pressure: 963.431885;
Altitude: 423.205505;
TemperatureCBaro: 26.879166;
AccelX: -0.204112;
AccelY: 0.038907;
AccelZ: 9.683644;
MagX: 0.153203;
MagY: -0.182623;
MagZ: 0.323740;
TemperatureCHumid: 26.681273;
Humidity: 28.126282;
TemperatureC: 26.000000;
$GNZDA,195919.000,02,02,2018,,*4F
$GPGGA,195919.000,4614.0195,N,00603.1337,E,1,10,1.02,480.1,M,48.2,M,,*68
Event: sub second micros:23995800/41998351; Event Count:81
PPS: GPS lock:1;
Pressure: 963.447021;
Altitude: 423.074066;
TemperatureCBaro: 26.887501;
AccelX: -0.210696;
AccelY: 0.003591;
AccelZ: 9.788992;
MagX: 0.153935;
MagY: -0.183599;
MagZ: 0.326670;
TemperatureCHumid: 26.702719;
Humidity: 28.111023;
TemperatureC: 26.000000;
$GNZDA,195920.000,02,02,2018,,*45
$GPGGA,195920.000,4614.0195,N,00603.1337,E,1,10,1.04,480.1,M,48.2,M,,*64
PPS: GPS lock:1;
Pressure: 963.460205;
Altitude: 422.959900;
TemperatureCBaro: 26.891666;
AccelX: -0.192739;
AccelY: 0.038308;
AccelZ: 9.680651;
MagX: 0.153935;
MagY: -0.182989;
MagZ: 0.323862;
TemperatureCHumid: 26.713446;
Humidity: 28.103394;
TemperatureC: 26.000000;
$GNZDA,195921.000,02,02,2018,,*44
$GPGGA,195921.000,4614.0195,N,00603.1337,E,1,10,1.04,480.1,M,48.2,M,,*65
PPS: GPS lock:1;
Pressure: 963.399414;
Altitude: 423.486725;
TemperatureCBaro: 26.900000;
AccelX: -0.195732;
AccelY: 0.038907;
AccelZ: 9.749487;
MagX: 0.153935;
MagY: -0.183599;
MagZ: 0.326670;
TemperatureCHumid: 26.713446;
Humidity: 28.088135;
TemperatureC: 26.000000;
$GNZDA,195922.000,02,02,2018,,*47
$GPGGA,195922.000,4614.0195,N,00603.1337,E,1,10,1.02,480.1,M,48.2,M,,*60
PPS: GPS lock:1;
Pressure: 963.429443;
Altitude: 423.226440;
TemperatureCBaro: 26.908333;
AccelX: -0.208900;
AccelY: 0.025738;
AccelZ: 9.736917;
MagX: 0.153935;
MagY: -0.183111;
MagZ: 0.324595;
TemperatureCHumid: 26.702719;
Humidity: 28.065247;
TemperatureC: 26.000000;
$GNZDA,195923.000,02,02,2018,,*46
$GPGGA,195923.000,4614.0195,N,00603.1337,E,1,10,1.04,480.1,M,48.2,M,,*67
Event: sub second micros:26005700/41998351; Event Count:82
PPS: GPS lock:1;
Pressure: 963.432129;
Altitude: 423.203400;
TemperatureCBaro: 26.914583;
AccelX: -0.219675;
AccelY: 0.019753;
AccelZ: 9.749487;
MagX: 0.153081;
MagY: -0.184210;
MagZ: 0.326304;
TemperatureCHumid: 26.734892;
Humidity: 28.072876;
TemperatureC: 26.000000;
$GNZDA,195924.000,02,02,2018,,*41
$GPGGA,195924.000,4614.0195,N,00603.1337,E,1,10,1.02,480.1,M,48.2,M,,*66
PPS: GPS lock:1;
Pressure: 963.486328;
Altitude: 422.733154;
TemperatureCBaro: 26.920834;
AccelX: -0.193338;
AccelY: -0.009577;
AccelZ: 9.699206;
MagX: 0.153325;
MagY: -0.183721;
MagZ: 0.323740;
TemperatureCHumid: 26.713446;
Humidity: 28.057617;
TemperatureC: 26.000000;
$GNZDA,195925.000,02,02,2018,,*40
$GPGGA,195925.000,4614.0195,N,00603.1337,E,1,10,1.04,480.1,M,48.2,M,,*61
Event: sub second micros:31607868/41998351; Event Count:83
PPS: GPS lock:1;
Pressure: 963.437500;
Altitude: 423.156799;
TemperatureCBaro: 26.927082;
AccelX: -0.205908;
AccelY: 0.011373;
AccelZ: 9.710580;
MagX: 0.153691;
MagY: -0.183721;
MagZ: 0.326670;
TemperatureCHumid: 26.745619;
Humidity: 28.042358;
TemperatureC: 26.000000;
$GNZDA,195926.000,02,02,2018,,*43
$GPGGA,195926.000,4614.0195,N,00603.1337,E,1,10,1.04,480.1,M,48.2,M,,*62
Event: sub second micros:23747136/41998350; Event Count:84
PPS: GPS lock:1;
Pressure: 963.427246;
Altitude: 423.245300;
TemperatureCBaro: 26.937500;
AccelX: -0.207703;
AccelY: 0.037111;
AccelZ: 9.687834;
MagX: 0.153691;
MagY: -0.183233;
MagZ: 0.324473;
TemperatureCHumid: 26.756346;
Humidity: 28.049988;
TemperatureC: 26.000000;
$GNZDA,195927.000,02,02,2018,,*42
$GPGGA,195927.000,4614.0195,N,00603.1337,E,1,10,1.04,480.1,M,48.2,M,,*63
Event: sub second micros:6658491/41998351; Event Count:85
Event: sub second micros:12999499/41998351; Event Count:86
Event: sub second micros:14902340/41998351; Event Count:87
PPS: GPS lock:1;
Pressure: 963.442871;
Altitude: 423.110199;
TemperatureCBaro: 26.947918;
AccelX: -0.198725;
AccelY: 0.013767;
AccelZ: 9.704595;
MagX: 0.153203;
MagY: -0.182989;
MagZ: 0.326792;
TemperatureCHumid: 26.745619;
Humidity: 28.034729;
TemperatureC: 26.000000;
$GNZDA,195928.000,02,02,2018,,*4D
$GPGGA,195928.000,4614.0195,N,00603.1337,E,1,10,1.04,480.1,M,48.2,M,,*6C
PPS: GPS lock:1;
Pressure: 963.464844;
Altitude: 422.919556;
TemperatureCBaro: 26.952084;
AccelX: -0.208900;
AccelY: 0.038308;
AccelZ: 9.772831;
MagX: 0.153325;
MagY: -0.184332;
MagZ: 0.325327;
TemperatureCHumid: 26.777792;
Humidity: 28.004211;
TemperatureC: 26.000000;
$GNZDA,195929.000,02,02,2018,,*4C
$GPGGA,195929.000,4614.0195,N,00603.1337,E,1,10,1.04,480.1,M,48.2,M,,*6D
Event: sub second micros:18526060/41998350; Event Count:88
PPS: GPS lock:1;
Pressure: 963.429688;
Altitude: 423.224335;
TemperatureCBaro: 26.960417;
AccelX: -0.193936;
AccelY: 0.037710;
AccelZ: 9.785401;
MagX: 0.153447;
MagY: -0.184210;
MagZ: 0.325327;
TemperatureCHumid: 26.767073;
Humidity: 28.004211;
TemperatureC: 26.000000;
$GNZDA,195930.000,02,02,2018,,*44
$GPGGA,195930.000,4614.0195,N,00603.1337,E,1,10,1.04,480.1,M,48.2,M,,*65
PPS: GPS lock:1;
Pressure: 963.421143;
Altitude: 423.298187;
TemperatureCBaro: 26.962500;
AccelX: -0.204710;
AccelY: 0.022147;
AccelZ: 9.699206;
MagX: 0.154424;
MagY: -0.183599;
MagZ: 0.324473;
TemperatureCHumid: 26.756346;
Humidity: 27.981323;
TemperatureC: 26.000000;
$GNZDA,195931.000,02,02,2018,,*45
$GPGGA,195931.000,4614.0195,N,00603.1337,E,1,10,1.04,480.1,M,48.2,M,,*64
PPS: GPS lock:1;
Pressure: 963.399658;
Altitude: 423.484619;
TemperatureCBaro: 26.975000;
AccelX: -0.192141;
AccelY: 0.035914;
AccelZ: 9.606429;
MagX: 0.153325;
MagY: -0.183233;
MagZ: 0.326792;
TemperatureCHumid: 26.788519;
Humidity: 27.981323;
TemperatureC: 26.000000;
$GNZDA,195932.000,02,02,2018,,*46
$GPGGA,195932.000,4614.0195,N,00603.1337,E,1,10,1.04,480.1,M,48.2,M,,*67
PPS: GPS lock:1;
Pressure: 963.359375;
Altitude: 423.833923;
TemperatureCBaro: 26.977083;
AccelX: -0.208900;
AccelY: 0.020351;
AccelZ: 9.733924;
MagX: 0.153325;
MagY: -0.183233;
MagZ: 0.324961;
TemperatureCHumid: 26.799246;
Humidity: 27.966064;
TemperatureC: 26.000000;
$GNZDA,195933.000,02,02,2018,,*47
$GPGGA,195933.000,4614.0195,N,00603.1337,E,1,10,1.04,480.1,M,48.2,M,,*66
Event: sub second micros:22199308/41998350; Event Count:89
Event: sub second micros:36467920/41998350; Event Count:90
PPS: GPS lock:1;
Pressure: 963.440430;
Altitude: 423.131134;
TemperatureCBaro: 26.987499;
AccelX: -0.197528;
AccelY: 0.022746;
AccelZ: 9.726143;
MagX: 0.153325;
MagY: -0.183355;
MagZ: 0.327036;
TemperatureCHumid: 26.799246;
Humidity: 27.958435;
TemperatureC: 26.000000;
$GNZDA,195934.000,02,02,2018,,*40
$GPGGA,195934.000,4614.0195,N,00603.1337,E,1,10,1.04,480.1,M,48.2,M,,*61
Event: sub second micros:186149/41998350; Event Count:91
PPS: GPS lock:1;
Pressure: 963.444092;
Altitude: 423.099701;
TemperatureCBaro: 26.993750;
AccelX: -0.202915;
AccelY: 0.028731;
AccelZ: 9.725544;
MagX: 0.152715;
MagY: -0.183233;
MagZ: 0.323740;
TemperatureCHumid: 26.809973;
Humidity: 27.950806;
TemperatureC: 26.000000;
$GNZDA,195935.000,02,02,2018,,*41
$GPGGA,195935.000,4614.0195,N,00603.1337,E,1,10,1.04,480.1,M,48.2,M,,*60
Event: sub second micros:26540568/41998351; Event Count:92
Event: sub second micros:30833083/41998351; Event Count:93
Event: sub second micros:32561384/41998351; Event Count:94
PPS: GPS lock:1;
Pressure: 963.474854;
Altitude: 422.832642;
TemperatureCBaro: 27.002083;
AccelX: -0.210696;
AccelY: 0.014964;
AccelZ: 9.738712;
MagX: 0.153203;
MagY: -0.183844;
MagZ: 0.326304;
TemperatureCHumid: 26.820692;
Humidity: 27.950806;
TemperatureC: 26.000000;
$GNZDA,195936.000,02,02,2018,,*42
$GPGGA,195936.000,4614.0195,N,00603.1337,E,1,10,1.04,480.1,M,48.2,M,,*63
PPS: GPS lock:1;
Pressure: 963.457520;
Altitude: 422.982941;
TemperatureCBaro: 27.008333;
AccelX: -0.202316;
AccelY: 0.004789;
AccelZ: 9.690827;
MagX: 0.153447;
MagY: -0.183233;
MagZ: 0.323985;
TemperatureCHumid: 26.831419;
Humidity: 27.935547;
TemperatureC: 26.000000;
$GNZDA,195937.000,02,02,2018,,*43
$GPGGA,195937.000,4614.0195,N,00603.1337,E,1,10,1.04,480.1,M,48.2,M,,*62
Event: sub second micros:27026370/41998351; Event Count:95
PPS: GPS lock:1;
Pressure: 963.405273;
Altitude: 423.435913;
TemperatureCBaro: 27.016666;
AccelX: -0.203513;
AccelY: 0.037710;
AccelZ: 9.671074;
MagX: 0.153447;
MagY: -0.183477;
MagZ: 0.327525;
TemperatureCHumid: 26.809973;
Humidity: 27.920288;
TemperatureC: 26.000000;
$GNZDA,195938.000,02,02,2018,,*4C
$GPGGA,195938.000,4614.0195,N,00603.1337,E,1,10,1.04,480.1,M,48.2,M,,*6D
PPS: GPS lock:1;
Pressure: 963.405518;
Altitude: 423.433838;
TemperatureCBaro: 27.025000;
AccelX: -0.202915;
AccelY: 0.068237;
AccelZ: 9.618999;
MagX: 0.153325;
MagY: -0.184698;
MagZ: 0.324351;
TemperatureCHumid: 26.842146;
Humidity: 27.905029;
TemperatureC: 26.000000;
$GNZDA,195939.000,02,02,2018,,*4D
$GPGGA,195939.000,4614.0195,N,00603.1337,E,1,10,1.04,480.1,M,48.2,M,,*6C
Event: sub second micros:15861353/41998351; Event Count:96
PPS: GPS lock:1;
Pressure: 963.366455;
Altitude: 423.772675;
TemperatureCBaro: 27.027084;
AccelX: -0.191542;
AccelY: 0.038907;
AccelZ: 9.720756;
MagX: 0.153813;
MagY: -0.183721;
MagZ: 0.326426;
TemperatureCHumid: 26.842146;
