INFO: Setting HV 1&2 to: 129
Detector threshold: 1110
Detector setup finished
INFO: Sensor setup complete
INFO: Running
Pressure: 971.896729;
Altitude: 350.065613;
TemperatureCBaro: 27.637501;
AccelX: -0.217280;
AccelY: 0.114925;
AccelZ: 8.965362;
MagX: 0.158696;
MagY: -0.156133;
MagZ: 0.266854;
TemperatureCHumid: 25.276281;
Humidity: 32.543701;
TemperatureC: 26.000000;
$PGCMD,33,0*6D
$PMTK001,314,3*36
$PMTK001,220,3*30
$PMTK705,AXN_3.8_3333_16042100,0006,Quectel-L76,1.0*0B
$GNZDA,184946.000,11,01,2018,,*44
$GPGGA,184946.000,,,,,0,0,,,M,,M,,*4E
Pressure: 971.894043;
Altitude: 350.089020;
TemperatureCBaro: 27.647917;
AccelX: -0.195732;
AccelY: 0.089187;
AccelZ: 8.982720;
MagX: 0.169561;
MagY: -0.139775;
MagZ: 0.270028;
TemperatureCHumid: 25.287008;
Humidity: 32.543701;
TemperatureC: 26.000000;
PPS: GPS lock:0;
$GNZDA,184947.000,11,01,2018,,*45
$GPGGA,184947.000,,,,,0,0,,,M,,M,,*4F
Pressure: 971.841309;
Altitude: 350.542969;
TemperatureCBaro: 27.656250;
AccelX: -0.229850;
AccelY: 0.093975;
AccelZ: 8.983318;
MagX: 0.176153;
MagY: -0.146977;
MagZ: 0.268807;
TemperatureCHumid: 25.297735;
Humidity: 32.543701;
TemperatureC: 26.000000;
PPS: GPS lock:0;
$GNZDA,184948.000,11,01,2018,,*4A
$GPGGA,184948.000,,,,,0,0,,,M,,M,,*40
Pressure: 971.863037;
Altitude: 350.355774;
TemperatureCBaro: 27.660416;
AccelX: -0.224463;
AccelY: 0.078412;
AccelZ: 8.991100;
MagX: 0.161138;
MagY: -0.138188;
MagZ: 0.268685;
TemperatureCHumid: 25.308455;
Humidity: 32.505554;
TemperatureC: 26.000000;
Event: sub second micros:5847907/42000000; Event Count:0
PPS: GPS lock:0;
$GNZDA,184949.000,11,01,2018,,*4B
$GPGGA,184949.000,4613.9824,N,00603.1174,E,1,5,2.75,467.2,M,48.2,M,,*58
Pressure: 971.813477;
Altitude: 350.782684;
TemperatureCBaro: 27.670834;
AccelX: -0.234639;
AccelY: 0.097567;
AccelZ: 9.013846;
MagX: 0.179693;
MagY: -0.142827;
MagZ: 0.268319;
TemperatureCHumid: 25.319181;
Humidity: 32.497925;
TemperatureC: 26.000000;
PPS: GPS lock:0;
PPS: GPS lock:1;
$GNZDA,184950.000,11,01,2018,,*43
$GPGGA,184950.000,4613.9825,N,00603.1174,E,1,5,2.33,467.1,M,48.2,M,,*50
Pressure: 971.881104;
Altitude: 350.200287;
TemperatureCBaro: 27.672916;
AccelX: -0.224463;
AccelY: 0.093377;
AccelZ: 8.968354;
MagX: 0.164434;
MagY: -0.140996;
MagZ: 0.267464;
TemperatureCHumid: 25.319181;
Humidity: 32.482666;
TemperatureC: 26.000000;
Event: sub second micros:17924401/41998485; Event Count:1
PPS: GPS lock:1;
$GNZDA,184951.000,11,01,2018,,*42
$GPGGA,184951.000,4613.9825,N,00603.1175,E,1,5,2.33,466.8,M,48.2,M,,*58
Pressure: 971.795166;
Altitude: 350.940277;
TemperatureCBaro: 27.683334;
AccelX: -0.225062;
AccelY: 0.095771;
AccelZ: 8.976136;
MagX: 0.201300;
MagY: -0.148686;
MagZ: 0.270150;
TemperatureCHumid: 25.340635;
Humidity: 32.467407;
TemperatureC: 26.000000;
Event: sub second micros:39684684/41998484; Event Count:2
PPS: GPS lock:1;
$GNZDA,184952.000,11,01,2018,,*41
$GPGGA,184952.000,4613.9826,N,00603.1178,E,1,5,2.33,466.8,M,48.2,M,,*55
Pressure: 971.866699;
Altitude: 350.324036;
TemperatureCBaro: 27.695833;
AccelX: -0.223266;
AccelY: 0.096370;
AccelZ: 8.975537;
MagX: 0.192389;
MagY: -0.161748;
MagZ: 0.267342;
TemperatureCHumid: 25.340635;
Humidity: 32.436890;
TemperatureC: 26.000000;
Event: sub second micros:34518389/41998485; Event Count:3
PPS: GPS lock:1;
$GNZDA,184953.000,11,01,2018,,*40
$GPGGA,184953.000,4613.9826,N,00603.1178,E,1,5,2.33,466.8,M,48.2,M,,*54
Pressure: 971.865479;
Altitude: 350.334961;
TemperatureCBaro: 27.702084;
AccelX: -0.202915;
AccelY: 0.089187;
AccelZ: 8.981524;
MagX: 0.173345;
MagY: -0.141728;
MagZ: 0.268929;
TemperatureCHumid: 25.340635;
Humidity: 32.421631;
TemperatureC: 26.000000;
Event: sub second micros:10085757/41998484; Event Count:4
PPS: GPS lock:1;
$GNZDA,184954.000,11,01,2018,,*47
$GPGGA,184954.000,4613.9826,N,00603.1178,E,1,5,2.33,466.8,M,48.2,M,,*53
Pressure: 971.908447;
Altitude: 349.964722;
TemperatureCBaro: 27.708332;
AccelX: -0.229850;
AccelY: 0.083800;
AccelZ: 8.989305;
MagX: 0.187262;
MagY: -0.144292;
MagZ: 0.262947;
TemperatureCHumid: 25.362082;
Humidity: 32.421631;
TemperatureC: 26.000000;
Event: sub second micros:29775749/41998484; Event Count:5
PPS: GPS lock:1;
$GNZDA,184955.000,11,01,2018,,*46
$GPGGA,184955.000,4613.9826,N,00603.1178,E,1,7,0.98,466.8,M,48.2,M,,*53
Pressure: 971.825928;
Altitude: 350.675568;
TemperatureCBaro: 27.714584;
AccelX: -0.228653;
AccelY: 0.085595;
AccelZ: 8.986312;
MagX: 0.172735;
MagY: -0.149419;
MagZ: 0.264901;
TemperatureCHumid: 25.372808;
Humidity: 32.406372;
TemperatureC: 26.000000;
PPS: GPS lock:1;
$GNZDA,184956.000,11,01,2018,,*45
$GPGGA,184956.000,4613.9826,N,00603.1178,E,1,7,1.03,466.8,M,48.2,M,,*53
Pressure: 971.827148;
Altitude: 350.664642;
TemperatureCBaro: 27.722916;
AccelX: -0.227456;
AccelY: 0.077814;
AccelZ: 8.971347;
MagX: 0.213996;
MagY: -0.142827;
MagZ: 0.263558;
TemperatureCHumid: 25.372808;
Humidity: 32.391113;
TemperatureC: 26.000000;
PPS: GPS lock:1;
$GNZDA,184957.000,11,01,2018,,*44
$GPGGA,184957.000,4613.9826,N,00603.1178,E,1,7,0.99,466.8,M,48.2,M,,*50
Pressure: 971.887695;
Altitude: 350.143616;
TemperatureCBaro: 27.733334;
AccelX: -0.222069;
AccelY: 0.089785;
AccelZ: 8.975537;
MagX: 0.170904;
MagY: -0.157231;
MagZ: 0.266732;
TemperatureCHumid: 25.383535;
Humidity: 32.383484;
TemperatureC: 26.000000;
Event: sub second micros:35864606/41998484; Event Count:6
PPS: GPS lock:1;
$GNZDA,184958.000,11,01,2018,,*4B
$GPGGA,184958.000,4613.9826,N,00603.1178,E,1,7,0.98,466.8,M,48.2,M,,*5E
Pressure: 971.919678;
Altitude: 349.868011;
TemperatureCBaro: 27.743750;
AccelX: -0.238230;
AccelY: 0.091581;
AccelZ: 8.977333;
MagX: 0.183966;
MagY: -0.148076;
MagZ: 0.265755;
TemperatureCHumid: 25.415709;
Humidity: 32.360596;
TemperatureC: 26.000000;
PPS: GPS lock:1;
$GNZDA,184959.000,11,01,2018,,*4A
$GPGGA,184959.000,4613.9826,N,00603.1178,E,1,7,0.98,466.8,M,48.2,M,,*5F
Pressure: 971.884521;
Altitude: 350.170654;
TemperatureCBaro: 27.750000;
AccelX: -0.235237;
AccelY: 0.080208;
AccelZ: 8.989902;
MagX: 0.198004;
MagY: -0.166021;
MagZ: 0.267464;
TemperatureCHumid: 25.415709;
Humidity: 32.330078;
TemperatureC: 26.000000;
PPS: GPS lock:1;
$GNZDA,185000.000,11,01,2018,,*4E
$GPGGA,185000.000,4613.9826,N,00603.1178,E,1,7,1.03,466.8,M,48.2,M,,*58
Pressure: 971.929688;
Altitude: 349.781708;
TemperatureCBaro: 27.760418;
AccelX: -0.230449;
AccelY: 0.104750;
AccelZ: 8.972545;
MagX: 0.181402;
MagY: -0.148076;
MagZ: 0.281381;
TemperatureCHumid: 25.437155;
Humidity: 32.330078;
TemperatureC: 26.000000;
PPS: GPS lock:1;
$GNZDA,185001.000,11,01,2018,,*4F
$GPGGA,185001.000,4613.9826,N,00603.1178,E,1,9,0.87,466.8,M,48.2,M,,*5A
Pressure: 971.898926;
Altitude: 350.046875;
TemperatureCBaro: 27.766666;
AccelX: -0.244815;
AccelY: 0.092778;
AccelZ: 8.966558;
MagX: 0.157476;
MagY: -0.155889;
MagZ: 0.267464;
TemperatureCHumid: 25.426435;
Humidity: 32.314819;
TemperatureC: 26.000000;
PPS: GPS lock:1;
$GNZDA,185002.000,11,01,2018,,*4C
$GPGGA,185002.000,4613.9826,N,00603.1178,E,1,9,0.87,466.8,M,48.2,M,,*59
Pressure: 971.886230;
Altitude: 350.156097;
TemperatureCBaro: 27.775000;
AccelX: -0.211295;
AccelY: 0.093975;
AccelZ: 8.982720;
MagX: 0.170537;
MagY: -0.164678;
MagZ: 0.265511;
TemperatureCHumid: 25.447882;
Humidity: 32.299561;
TemperatureC: 26.000000;
PPS: GPS lock:1;
$GNZDA,185003.000,11,01,2018,,*4D
$GPGGA,185003.000,4613.9826,N,00603.1178,E,1,9,0.87,466.8,M,48.2,M,,*58
Pressure: 971.899902;
Altitude: 350.038574;
TemperatureCBaro: 27.779167;
AccelX: -0.210696;
AccelY: 0.092778;
AccelZ: 8.962369;
MagX: 0.210456;
MagY: -0.156743;
MagZ: 0.267708;
TemperatureCHumid: 25.458609;
Humidity: 32.284302;
TemperatureC: 26.000000;
PPS: GPS lock:1;
$GNZDA,185004.000,11,01,2018,,*4A
$GPGGA,185004.000,4613.9826,N,00603.1178,E,1,9,0.90,466.8,M,48.2,M,,*59
Pressure: 971.892090;
Altitude: 350.105652;
TemperatureCBaro: 27.789583;
AccelX: -0.241223;
AccelY: 0.087391;
AccelZ: 8.987509;
MagX: 0.193243;
MagY: -0.166021;
MagZ: 0.267464;
TemperatureCHumid: 25.469336;
Humidity: 32.261414;
TemperatureC: 26.000000;
PPS: GPS lock:1;
$GNZDA,185005.000,11,01,2018,,*4B
$GPGGA,185005.000,4613.9826,N,00603.1178,E,1,9,0.90,466.8,M,48.2,M,,*58
Pressure: 971.859131;
Altitude: 350.389557;
TemperatureCBaro: 27.795834;
AccelX: -0.223865;
AccelY: 0.084398;
AccelZ: 8.968953;
MagX: 0.170415;
MagY: -0.144780;
MagZ: 0.267708;
TemperatureCHumid: 25.469336;
Humidity: 32.253784;
TemperatureC: 26.000000;
PPS: GPS lock:1;
$GNZDA,185006.000,11,01,2018,,*48
$GPGGA,185006.000,4613.9826,N,00603.1178,E,1,9,0.87,466.8,M,48.2,M,,*5D
Pressure: 971.849365;
Altitude: 350.473297;
TemperatureCBaro: 27.806250;
AccelX: -0.219675;
AccelY: 0.095771;
AccelZ: 8.982121;
MagX: 0.185186;
MagY: -0.152348;
MagZ: 0.265023;
TemperatureCHumid: 25.490782;
Humidity: 32.246155;
TemperatureC: 26.000000;
PPS: GPS lock:1;
$GNZDA,185007.000,11,01,2018,,*49
$GPGGA,185007.000,4613.9826,N,00603.1178,E,1,9,0.87,466.8,M,48.2,M,,*5C
Pressure: 971.888672;
Altitude: 350.135284;
TemperatureCBaro: 27.816666;
AccelX: -0.233442;
AccelY: 0.092778;
AccelZ: 8.956982;
MagX: 0.171758;
MagY: -0.161138;
MagZ: 0.268197;
TemperatureCHumid: 25.512236;
Humidity: 32.215637;
TemperatureC: 26.000000;
Event: sub second micros:18768995/41998483; Event Count:7
PPS: GPS lock:1;
$GNZDA,185008.000,11,01,2018,,*46
$GPGGA,185008.000,4613.9826,N,00603.1178,E,1,9,0.87,466.8,M,48.2,M,,*53
Pressure: 971.869873;
Altitude: 350.296997;
TemperatureCBaro: 27.822918;
AccelX: -0.201718;
AccelY: 0.092778;
AccelZ: 8.965362;
MagX: 0.168096;
MagY: -0.153569;
MagZ: 0.265999;
TemperatureCHumid: 25.512236;
Humidity: 32.208008;
TemperatureC: 26.000000;
PPS: GPS lock:1;
$GNZDA,185009.000,11,01,2018,,*47
$GPGGA,185009.000,4613.9826,N,00603.1178,E,1,9,0.90,466.8,M,48.2,M,,*54
Pressure: 971.844238;
Altitude: 350.517487;
TemperatureCBaro: 27.831249;
AccelX: -0.223266;
AccelY: 0.098764;
AccelZ: 8.985114;
MagX: 0.200568;
MagY: -0.155889;
MagZ: 0.267586;
TemperatureCHumid: 25.522955;
Humidity: 32.185120;
TemperatureC: 26.000000;
PPS: GPS lock:1;
$GNZDA,185010.000,11,01,2018,,*4F
$GPGGA,185010.000,4613.9826,N,00603.1178,E,1,10,0.82,466.8,M,48.2,M,,*67
Pressure: 971.864746;
Altitude: 350.341217;
TemperatureCBaro: 27.837500;
AccelX: -0.222668;
AccelY: 0.094574;
AccelZ: 8.984516;
MagX: 0.192999;
MagY: -0.158696;
MagZ: 0.266366;
TemperatureCHumid: 25.533682;
Humidity: 32.162231;
TemperatureC: 26.000000;
PPS: GPS lock:1;
$GNZDA,185011.000,11,01,2018,,*4E
$GPGGA,185011.000,4613.9826,N,00603.1178,E,1,10,0.82,466.8,M,48.2,M,,*66
Pressure: 971.864258;
Altitude: 350.345367;
TemperatureCBaro: 27.847916;
AccelX: -0.241822;
AccelY: 0.093377;
AccelZ: 8.988107;
MagX: 0.179571;
MagY: -0.159551;
MagZ: 0.266976;
TemperatureCHumid: 25.533682;
Humidity: 32.146973;
TemperatureC: 26.000000;
PPS: GPS lock:1;
$GNZDA,185012.000,11,01,2018,,*4D
$GPGGA,185012.000,4613.9826,N,00603.1178,E,1,10,0.83,466.8,M,48.2,M,,*64
Pressure: 971.884521;
Altitude: 350.170654;
TemperatureCBaro: 27.854168;
AccelX: -0.244815;
AccelY: 0.085595;
AccelZ: 8.967756;
MagX: 0.187017;
MagY: -0.154790;
MagZ: 0.265633;
TemperatureCHumid: 25.544409;
Humidity: 32.146973;
TemperatureC: 26.000000;
PPS: GPS lock:1;
$GNZDA,185013.000,11,01,2018,,*4C
$GPGGA,185013.000,4613.9826,N,00603.1178,E,1,10,0.82,466.8,M,48.2,M,,*64
Pressure: 971.871582;
Altitude: 350.282440;
TemperatureCBaro: 27.862499;
AccelX: -0.239427;
AccelY: 0.112531;
AccelZ: 8.977333;
MagX: 0.172735;
MagY: -0.148076;
MagZ: 0.267098;
TemperatureCHumid: 25.544409;
Humidity: 32.131714;
TemperatureC: 26.000000;
PPS: GPS lock:1;
$GNZDA,185014.000,11,01,2018,,*4B
$GPGGA,185014.000,4613.9826,N,00603.1178,E,1,10,0.82,466.8,M,48.2,M,,*63
Pressure: 971.867920;
Altitude: 350.313629;
TemperatureCBaro: 27.877083;
AccelX: -0.216083;
AccelY: 0.109538;
AccelZ: 9.000079;
MagX: 0.171758;
MagY: -0.147099;
MagZ: 0.265145;
TemperatureCHumid: 25.565863;
Humidity: 32.101196;
TemperatureC: 26.000000;
PPS: GPS lock:1;
$GNZDA,185015.000,11,01,2018,,*4A
$GPGGA,185015.000,4613.9826,N,00603.1178,E,1,10,0.83,466.8,M,48.2,M,,*63
Pressure: 971.836914;
Altitude: 350.580933;
TemperatureCBaro: 27.879166;
AccelX: -0.229252;
AccelY: 0.090982;
AccelZ: 8.977932;
MagX: 0.172857;
MagY: -0.131840;
MagZ: 0.266976;
TemperatureCHumid: 25.587309;
Humidity: 32.093567;
TemperatureC: 26.000000;
Event: sub second micros:17866047/41998482; Event Count:8
PPS: GPS lock:1;
$GNZDA,185016.000,11,01,2018,,*49
$GPGGA,185016.000,4613.9826,N,00603.1178,E,1,10,0.83,466.8,M,48.2,M,,*60
Pressure: 971.949951;
Altitude: 349.607513;
TemperatureCBaro: 27.887501;
AccelX: -0.241223;
AccelY: 0.080807;
AccelZ: 8.982720;
MagX: 0.184698;
MagY: -0.155278;
MagZ: 0.265145;
TemperatureCHumid: 25.598036;
Humidity: 32.070679;
TemperatureC: 26.000000;
Event: sub second micros:13465971/41998481; Event Count:9
PPS: GPS lock:1;
$GNZDA,185017.000,11,01,2018,,*48
$GPGGA,185017.000,4613.9826,N,00603.1178,E,1,10,0.83,466.8,M,48.2,M,,*61
Pressure: 971.864502;
Altitude: 350.343292;
TemperatureCBaro: 27.893749;
AccelX: -0.224463;
AccelY: 0.093377;
AccelZ: 8.979129;
MagX: 0.161138;
MagY: -0.153447;
MagZ: 0.267220;
TemperatureCHumid: 25.587309;
Humidity: 32.055420;
TemperatureC: 26.000000;
PPS: GPS lock:1;
$GNZDA,185018.000,11,01,2018,,*47
$GPGGA,185018.000,4613.9826,N,00603.1178,E,1,10,0.83,466.8,M,48.2,M,,*6E
Pressure: 971.928711;
Altitude: 349.790527;
TemperatureCBaro: 27.902084;
AccelX: -0.228653;
AccelY: 0.103552;
AccelZ: 8.971347;
MagX: 0.179815;
MagY: -0.146855;
MagZ: 0.265999;
TemperatureCHumid: 25.619482;
Humidity: 32.032532;
TemperatureC: 26.000000;
PPS: GPS lock:1;
$GNZDA,185019.000,11,01,2018,,*46
$GPGGA,185019.000,4613.9826,N,00603.1178,E,1,10,0.83,466.8,M,48.2,M,,*6F
Pressure: 971.893311;
Altitude: 350.095245;
TemperatureCBaro: 27.910416;
AccelX: -0.237632;
AccelY: 0.083201;
AccelZ: 8.972545;
MagX: 0.194830;
MagY: -0.139775;
MagZ: 0.264412;
TemperatureCHumid: 25.619482;
Humidity: 32.040161;
TemperatureC: 26.000000;
PPS: GPS lock:1;
$GNZDA,185020.000,11,01,2018,,*4C
$GPGGA,185020.000,4613.9826,N,00603.1178,E,1,10,0.83,466.8,M,48.2,M,,*65
Pressure: 971.934814;
Altitude: 349.738007;
TemperatureCBaro: 27.918751;
AccelX: -0.235237;
AccelY: 0.086194;
AccelZ: 8.975537;
MagX: 0.164068;
MagY: -0.147343;
MagZ: 0.263680;
TemperatureCHumid: 25.619482;
Humidity: 32.009644;
TemperatureC: 26.000000;
Event: sub second micros:4617362/41998481; Event Count:10
PPS: GPS lock:1;
$GNZDA,185021.000,11,01,2018,,*4D
$GPGGA,185021.000,4613.9826,N,00603.1178,E,1,10,0.83,466.8,M,48.2,M,,*64
Pressure: 971.887695;
Altitude: 350.143616;
TemperatureCBaro: 27.924999;
AccelX: -0.226858;
AccelY: 0.086792;
AccelZ: 8.970749;
MagX: 0.178716;
MagY: -0.152593;
MagZ: 0.271737;
TemperatureCHumid: 25.630209;
Humidity: 31.979126;
TemperatureC: 26.000000;
Event: sub second micros:18852339/41998481; Event Count:11
PPS: GPS lock:1;
$GNZDA,185022.000,11,01,2018,,*4E
$GPGGA,185022.000,4613.9826,N,00603.1178,E,1,10,0.83,466.8,M,48.2,M,,*67
Pressure: 971.937012;
Altitude: 349.718781;
TemperatureCBaro: 27.931250;
AccelX: -0.235237;
AccelY: 0.082602;
AccelZ: 8.985713;
MagX: 0.179205;
MagY: -0.150273;
MagZ: 0.265999;
TemperatureCHumid: 25.640936;
Humidity: 31.979126;
TemperatureC: 26.000000;
PPS: GPS lock:1;
$GNZDA,185023.000,11,01,2018,,*4F
$GPGGA,185023.000,4613.9826,N,00603.1178,E,1,10,0.83,466.8,M,48.2,M,,*66
Pressure: 971.911377;
Altitude: 349.939758;
TemperatureCBaro: 27.941666;
AccelX: -0.217879;
AccelY: 0.084997;
AccelZ: 8.966558;
MagX: 0.192511;
MagY: -0.146001;
MagZ: 0.266854;
TemperatureCHumid: 25.651663;
Humidity: 31.956238;
TemperatureC: 26.000000;
PPS: GPS lock:1;
$GNZDA,185024.000,11,01,2018,,*48
$GPGGA,185024.000,4613.9826,N,00603.1178,E,1,10,0.83,466.8,M,48.2,M,,*61
Pressure: 971.885498;
Altitude: 350.162323;
TemperatureCBaro: 27.950001;
AccelX: -0.219675;
AccelY: 0.090982;
AccelZ: 8.955785;
MagX: 0.175054;
MagY: -0.148564;
MagZ: 0.266121;
TemperatureCHumid: 25.673109;
Humidity: 31.940979;
TemperatureC: 26.000000;
PPS: GPS lock:1;
$GNZDA,185025.000,11,01,2018,,*49
$GPGGA,185025.000,4613.9826,N,00603.1178,E,1,10,0.83,466.8,M,48.2,M,,*60
Pressure: 971.873291;
Altitude: 350.267365;
TemperatureCBaro: 27.958332;
AccelX: -0.238829;
AccelY: 0.081405;
AccelZ: 8.979129;
MagX: 0.175298;
MagY: -0.156743;
MagZ: 0.268563;
TemperatureCHumid: 25.673109;
Humidity: 31.925720;
TemperatureC: 26.000000;
Event: sub second micros:21094013/41998481; Event Count:12
PPS: GPS lock:1;
$GNZDA,185026.000,11,01,2018,,*4A
$GPGGA,185026.000,4613.9826,N,00603.1178,E,1,10,0.83,466.8,M,48.2,M,,*63
Pressure: 971.908447;
Altitude: 349.964722;
TemperatureCBaro: 27.966667;
AccelX: -0.233442;
AccelY: 0.096370;
AccelZ: 8.968354;
MagX: 0.183233;
MagY: -0.154668;
MagZ: 0.248299;
TemperatureCHumid: 25.683836;
Humidity: 31.910461;
TemperatureC: 26.000000;
PPS: GPS lock:1;
$GNZDA,185027.000,11,01,2018,,*4B
$GPGGA,185027.000,4613.9826,N,00603.1178,E,1,10,0.83,466.8,M,48.2,M,,*62
Pressure: 971.873047;
Altitude: 350.269440;
TemperatureCBaro: 27.972916;
AccelX: -0.251399;
AccelY: 0.087990;
AccelZ: 8.982121;
MagX: 0.162481;
MagY: -0.157598;
MagZ: 0.267342;
TemperatureCHumid: 25.694563;
Humidity: 31.887573;
TemperatureC: 26.000000;
PPS: GPS lock:1;
$GNZDA,185028.000,11,01,2018,,*44
$GPGGA,185028.000,4613.9826,N,00603.1178,E,1,10,0.83,466.8,M,48.2,M,,*6D
Pressure: 971.881348;
Altitude: 350.198212;
TemperatureCBaro: 27.983334;
AccelX: -0.226858;
AccelY: 0.095172;
AccelZ: 8.978530;
MagX: 0.190191;
MagY: -0.147710;
MagZ: 0.265145;
TemperatureCHumid: 25.705282;
Humidity: 31.864685;
TemperatureC: 26.000000;
PPS: GPS lock:1;
$GNZDA,185029.000,11,01,2018,,*45
$GPGGA,185029.000,4613.9826,N,00603.1178,E,1,10,0.83,466.8,M,48.2,M,,*6C
Pressure: 971.908691;
Altitude: 349.962646;
TemperatureCBaro: 27.989582;
AccelX: -0.233442;
AccelY: 0.089785;
AccelZ: 8.976735;
MagX: 0.192755;
MagY: -0.152593;
MagZ: 0.266732;
TemperatureCHumid: 25.705282;
Humidity: 31.857056;
TemperatureC: 26.000000;
Event: sub second micros:3050224/41998480; Event Count:13
Event: sub second micros:21178501/41998480; Event Count:14
PPS: GPS lock:1;
$GNZDA,185030.000,11,01,2018,,*4D
$GPGGA,185030.000,4613.9826,N,00603.1178,E,1,10,0.83,466.8,M,48.2,M,,*64
Pressure: 971.916992;
Altitude: 349.891418;
TemperatureCBaro: 28.000000;
AccelX: -0.231646;
AccelY: 0.080807;
AccelZ: 8.966558;
MagX: 0.187262;
MagY: -0.144047;
MagZ: 0.265145;
TemperatureCHumid: 25.726736;
Humidity: 31.857056;
TemperatureC: 26.000000;
Event: sub second micros:39827654/41998480; Event Count:15
PPS: GPS lock:1;
$GNZDA,185031.000,11,01,2018,,*4C
$GPGGA,185031.000,4613.9826,N,00603.1178,E,1,11,0.80,466.8,M,48.2,M,,*67
Pressure: 971.926514;
Altitude: 349.809265;
TemperatureCBaro: 28.008333;
AccelX: -0.229850;
AccelY: 0.093377;
AccelZ: 8.948003;
MagX: 0.173345;
MagY: -0.154912;
MagZ: 0.265877;
TemperatureCHumid: 25.748182;
Humidity: 31.826538;
TemperatureC: 26.000000;
PPS: GPS lock:1;
$GNZDA,185032.000,11,01,2018,,*4F
$GPGGA,185032.000,4613.9826,N,00603.1178,E,1,11,0.80,466.8,M,48.2,M,,*64
Pressure: 971.892090;
Altitude: 350.105652;
TemperatureCBaro: 28.014584;
AccelX: -0.229850;
AccelY: 0.089187;
AccelZ: 8.987509;
MagX: 0.162114;
MagY: -0.153813;
MagZ: 0.262825;
TemperatureCHumid: 25.748182;
Humidity: 31.818909;
TemperatureC: 26.000000;
PPS: GPS lock:1;
$GNZDA,185033.000,11,01,2018,,*4E
$GPGGA,185033.000,4613.9826,N,00603.1178,E,1,11,0.80,466.8,M,48.2,M,,*65
Pressure: 971.886475;
Altitude: 350.153992;
TemperatureCBaro: 28.020832;
AccelX: -0.226858;
AccelY: 0.084997;
AccelZ: 8.978530;
MagX: 0.186529;
MagY: -0.164922;
MagZ: 0.267220;
TemperatureCHumid: 25.758909;
Humidity: 31.788391;
TemperatureC: 26.000000;
PPS: GPS lock:1;
$GNZDA,185034.000,11,01,2018,,*49
$GPGGA,185034.000,4613.9826,N,00603.1178,E,1,11,0.80,466.8,M,48.2,M,,*62
Pressure: 971.911621;
Altitude: 349.937683;
TemperatureCBaro: 28.027084;
AccelX: -0.233442;
AccelY: 0.076018;
AccelZ: 8.986910;
MagX: 0.176031;
MagY: -0.153203;
MagZ: 0.266366;
TemperatureCHumid: 25.769636;
Humidity: 31.796021;
TemperatureC: 26.000000;
PPS: GPS lock:1;
$GNZDA,185035.000,11,01,2018,,*48
$GPGGA,185035.000,4613.9826,N,00603.1178,E,1,11,0.80,466.8,M,48.2,M,,*63
Pressure: 971.864014;
Altitude: 350.347443;
TemperatureCBaro: 28.037500;
AccelX: -0.232245;
AccelY: 0.083201;
AccelZ: 8.976136;
MagX: 0.198492;
MagY: -0.162358;
MagZ: 0.266854;
TemperatureCHumid: 25.769636;
Humidity: 31.750244;
TemperatureC: 26.000000;
Event: sub second micros:16966790/41998480; Event Count:16
PPS: GPS lock:1;
$GNZDA,185036.000,11,01,2018,,*4B
$GPGGA,185036.000,4613.9826,N,00603.1178,E,1,11,0.80,466.8,M,48.2,M,,*60
Pressure: 971.874512;
Altitude: 350.256958;
TemperatureCBaro: 28.045834;
AccelX: -0.241223;
AccelY: 0.077814;
AccelZ: 9.006064;
MagX: 0.183966;
MagY: -0.153935;
MagZ: 0.265755;
TemperatureCHumid: 25.780363;
Humidity: 31.734985;
TemperatureC: 26.000000;
PPS: GPS lock:1;
$GNZDA,185037.000,11,01,2018,,*4A
$GPGGA,185037.000,4613.9826,N,00603.1178,E,1,11,0.80,466.8,M,48.2,M,,*61
Pressure: 971.947510;
Altitude: 349.628296;
TemperatureCBaro: 28.052082;
AccelX: -0.234639;
AccelY: 0.086194;
AccelZ: 8.989305;
MagX: 0.182501;
MagY: -0.157353;
MagZ: 0.270028;
TemperatureCHumid: 25.801809;
Humidity: 31.734985;
TemperatureC: 26.000000;
PPS: GPS lock:1;
$GNZDA,185038.000,11,01,2018,,*45
$GPGGA,185038.000,4613.9826,N,00603.1178,E,1,11,0.80,466.8,M,48.2,M,,*6E
Pressure: 971.853027;
Altitude: 350.442078;
TemperatureCBaro: 28.062500;
AccelX: -0.228055;
AccelY: 0.102355;
AccelZ: 8.979129;
MagX: 0.166509;
MagY: -0.135624;
MagZ: 0.263436;
TemperatureCHumid: 25.791082;
Humidity: 31.719727;
TemperatureC: 26.000000;
PPS: GPS lock:1;
$GNZDA,185039.000,11,01,2018,,*44
$GPGGA,185039.000,4613.9826,N,00603.1178,E,1,11,0.80,466.8,M,48.2,M,,*6F
Pressure: 971.856201;
Altitude: 350.414520;
TemperatureCBaro: 28.070833;
AccelX: -0.223266;
AccelY: 0.106545;
AccelZ: 8.979728;
MagX: 0.170782;
MagY: -0.156865;
MagZ: 0.267220;
TemperatureCHumid: 25.791082;
Humidity: 31.689209;
TemperatureC: 26.000000;
Event: sub second micros:23690014/41998479; Event Count:17
PPS: GPS lock:1;
$GNZDA,185040.000,11,01,2018,,*4A
$GPGGA,185040.000,4613.9826,N,00603.1178,E,1,12,0.74,466.8,M,48.2,M,,*69
Pressure: 971.937500;
Altitude: 349.714630;
TemperatureCBaro: 28.079166;
AccelX: -0.236435;
AccelY: 0.082004;
AccelZ: 8.965362;
MagX: 0.196417;
MagY: -0.156499;
MagZ: 0.265389;
TemperatureCHumid: 25.833990;
Humidity: 31.689209;
TemperatureC: 26.000000;
PPS: GPS lock:1;
$GNZDA,185041.000,11,01,2018,,*4B
$GPGGA,185041.000,4613.9826,N,00603.1178,E,1,12,0.74,466.8,M,48.2,M,,*68
Pressure: 971.870361;
Altitude: 350.292847;
TemperatureCBaro: 28.085417;
AccelX: -0.240625;
AccelY: 0.100560;
AccelZ: 8.968953;
MagX: 0.192145;
MagY: -0.158940;
MagZ: 0.266488;
TemperatureCHumid: 25.812536;
Humidity: 31.666321;
TemperatureC: 26.000000;
PPS: GPS lock:1;
$GNZDA,185042.000,11,01,2018,,*48
$GPGGA,185042.000,4613.9826,N,00603.1178,E,1,12,0.74,466.8,M,48.2,M,,*6B
Pressure: 971.924316;
Altitude: 349.827972;
TemperatureCBaro: 28.095833;
AccelX: -0.234639;
AccelY: 0.097567;
AccelZ: 9.001874;
MagX: 0.177007;
MagY: -0.157353;
MagZ: 0.265877;
TemperatureCHumid: 25.855436;
Humidity: 31.651062;
TemperatureC: 26.000000;
PPS: GPS lock:1;
$GNZDA,185043.000,11,01,2018,,*49
$GPGGA,185043.000,4613.9826,N,00603.1178,E,1,12,0.74,466.8,M,48.2,M,,*6A
Pressure: 971.918457;
Altitude: 349.878418;
TemperatureCBaro: 28.100000;
AccelX: -0.226858;
AccelY: 0.084997;
AccelZ: 8.985114;
MagX: 0.170049;
MagY: -0.159185;
MagZ: 0.268685;
TemperatureCHumid: 25.833990;
Humidity: 31.620544;
TemperatureC: 26.000000;
PPS: GPS lock:1;
$GNZDA,185044.000,11,01,2018,,*4E
$GPGGA,185044.000,4613.9826,N,00603.1178,E,1,12,0.74,466.8,M,48.2,M,,*6D
Pressure: 971.942139;
Altitude: 349.674591;
TemperatureCBaro: 28.108334;
AccelX: -0.225062;
AccelY: 0.087391;
AccelZ: 8.983917;
MagX: 0.179937;
MagY: -0.160894;
MagZ: 0.265999;
TemperatureCHumid: 25.855436;
Humidity: 31.605286;
TemperatureC: 26.000000;
Event: sub second micros:34310127/41998479; Event Count:18
PPS: GPS lock:1;
$GNZDA,185045.000,11,01,2018,,*4F
$GPGGA,185045.000,4613.9826,N,00603.1178,E,1,12,0.74,466.8,M,48.2,M,,*6C
Pressure: 971.934082;
Altitude: 349.744263;
TemperatureCBaro: 28.116667;
AccelX: -0.232245;
AccelY: 0.083201;
AccelZ: 8.974939;
MagX: 0.187750;
MagY: -0.160894;
MagZ: 0.265267;
TemperatureCHumid: 25.866163;
Humidity: 31.597656;
TemperatureC: 26.000000;
PPS: GPS lock:1;
$GNZDA,185046.000,11,01,2018,,*4C
$GPGGA,185046.000,4613.9826,N,00603.1178,E,1,12,0.74,466.8,M,48.2,M,,*6F
Pressure: 971.915771;
Altitude: 349.901825;
TemperatureCBaro: 28.122917;
AccelX: -0.250800;
AccelY: 0.086194;
AccelZ: 8.992896;
MagX: 0.177496;
MagY: -0.143681;
MagZ: 0.264168;
TemperatureCHumid: 25.876890;
Humidity: 31.582397;
TemperatureC: 26.000000;
PPS: GPS lock:1;
$GNZDA,185047.000,11,01,2018,,*4D
$GPGGA,185047.000,4613.9826,N,00603.1178,E,1,12,0.74,466.8,M,48.2,M,,*6E
Pressure: 971.910889;
Altitude: 349.943939;
TemperatureCBaro: 28.129166;
AccelX: -0.228055;
AccelY: 0.097567;
AccelZ: 8.977333;
MagX: 0.181402;
MagY: -0.160649;
MagZ: 0.267586;
TemperatureCHumid: 25.887609;
Humidity: 31.574768;
TemperatureC: 26.000000;
PPS: GPS lock:1;
$GNZDA,185048.000,11,01,2018,,*42
$GPGGA,185048.000,4613.9826,N,00603.1178,E,1,12,0.74,466.8,M,48.2,M,,*61
Pressure: 971.878418;
Altitude: 350.223175;
TemperatureCBaro: 28.135418;
AccelX: -0.237632;
AccelY: 0.087990;
AccelZ: 8.981524;
MagX: 0.159429;
MagY: -0.156011;
MagZ: 0.261727;
TemperatureCHumid: 25.898336;
Humidity: 31.567139;
TemperatureC: 26.000000;
PPS: GPS lock:1;
$GNZDA,185049.000,11,01,2018,,*43
$GPGGA,185049.000,4613.9826,N,00603.1178,E,1,12,0.74,466.8,M,48.2,M,,*60
Pressure: 971.884521;
Altitude: 350.170654;
TemperatureCBaro: 28.141666;
AccelX: -0.228055;
AccelY: 0.099362;
AccelZ: 8.979129;
MagX: 0.178472;
MagY: -0.153203;
MagZ: 0.267342;
TemperatureCHumid: 25.898336;
Humidity: 31.528992;
TemperatureC: 26.000000;
Event: sub second micros:12977574/41998478; Event Count:19
Event: sub second micros:17136545/41998478; Event Count:20
PPS: GPS lock:1;
$GNZDA,185050.000,11,01,2018,,*4B
$GPGGA,185050.000,4613.9826,N,00603.1178,E,1,12,0.74,466.8,M,48.2,M,,*68
Pressure: 971.838867;
Altitude: 350.563751;
TemperatureCBaro: 28.150000;
AccelX: -0.232245;
AccelY: 0.077215;
AccelZ: 8.979129;
MagX: 0.176763;
MagY: -0.149297;
MagZ: 0.265145;
TemperatureCHumid: 25.887609;
Humidity: 31.528992;
TemperatureC: 26.000000;
PPS: GPS lock:1;
$GNZDA,185051.000,11,01,2018,,*4A
$GPGGA,185051.000,4613.9826,N,00603.1178,E,1,12,0.74,466.8,M,48.2,M,,*69
Pressure: 971.853027;
Altitude: 350.442078;
TemperatureCBaro: 28.160416;
AccelX: -0.231646;
AccelY: 0.081405;
AccelZ: 8.977333;
MagX: 0.157231;
MagY: -0.148686;
MagZ: 0.267098;
TemperatureCHumid: 25.930510;
Humidity: 31.498474;
TemperatureC: 26.000000;
PPS: GPS lock:1;
$GNZDA,185052.000,11,01,2018,,*49
$GPGGA,185052.000,4613.9826,N,00603.1178,E,1,12,0.74,466.8,M,48.2,M,,*6A
Pressure: 971.885498;
Altitude: 350.162323;
TemperatureCBaro: 28.166668;
AccelX: -0.234040;
AccelY: 0.081405;
AccelZ: 8.978530;
MagX: 0.187017;
MagY: -0.154912;
MagZ: 0.265145;
TemperatureCHumid: 25.941236;
Humidity: 31.498474;
TemperatureC: 26.000000;
PPS: GPS lock:1;
$GNZDA,185053.000,11,01,2018,,*48
$GPGGA,185053.000,4613.9826,N,00603.1178,E,1,12,0.74,466.8,M,48.2,M,,*6B
Pressure: 971.889160;
Altitude: 350.131134;
TemperatureCBaro: 28.172916;
AccelX: -0.217879;
AccelY: 0.079011;
AccelZ: 8.977333;
MagX: 0.157598;
MagY: -0.151738;
MagZ: 0.267098;
TemperatureCHumid: 25.930510;
Humidity: 31.467957;
TemperatureC: 26.000000;
PPS: GPS lock:1;
$GNZDA,185054.000,11,01,2018,,*4F
$GPGGA,185054.000,4613.9826,N,00603.1178,E,1,12,0.74,466.8,M,48.2,M,,*6C
Pressure: 971.855957;
Altitude: 350.416595;
TemperatureCBaro: 28.179167;
AccelX: -0.228055;
AccelY: 0.076018;
AccelZ: 8.983318;
MagX: 0.183599;
MagY: -0.142338;
MagZ: 0.264779;
TemperatureCHumid: 25.962690;
Humidity: 31.445068;
TemperatureC: 26.000000;
Event: sub second micros:11851434/41998477; Event Count:21
PPS: GPS lock:1;
$GNZDA,185055.000,11,01,2018,,*4E
$GPGGA,185055.000,4613.9826,N,00603.1178,E,1,12,0.74,466.8,M,48.2,M,,*6D
Pressure: 971.893799;
Altitude: 350.091095;
TemperatureCBaro: 28.187500;
AccelX: -0.232245;
AccelY: 0.093975;
AccelZ: 8.977932;
MagX: 0.183966;
MagY: -0.149907;
MagZ: 0.267342;
TemperatureCHumid: 25.994864;
Humidity: 31.445068;
TemperatureC: 26.000000;
PPS: GPS lock:1;
$GNZDA,185056.000,11,01,2018,,*4D
$GPGGA,185056.000,4613.9826,N,00603.1178,E,1,12,0.74,466.8,M,48.2,M,,*6E
Pressure: 971.916016;
Altitude: 349.899719;
TemperatureCBaro: 28.195833;
AccelX: -0.228653;
AccelY: 0.092180;
AccelZ: 8.947405;
MagX: 0.173956;
MagY: -0.155889;
MagZ: 0.266121;
TemperatureCHumid: 25.973410;
Humidity: 31.437439;
TemperatureC: 26.000000;
PPS: GPS lock:1;
$GNZDA,185057.000,11,01,2018,,*4C
$GPGGA,185057.000,4613.9826,N,00603.1178,E,1,12,0.74,466.8,M,48.2,M,,*6F
Pressure: 971.918945;
Altitude: 349.874237;
TemperatureCBaro: 28.202084;
AccelX: -0.241223;
AccelY: 0.107144;
AccelZ: 8.992896;
MagX: 0.170171;
MagY: -0.158696;
MagZ: 0.267220;
TemperatureCHumid: 25.984137;
Humidity: 31.406921;
TemperatureC: 26.000000;
PPS: GPS lock:1;
$GNZDA,185058.000,11,01,2018,,*43
$GPGGA,185058.000,4613.9826,N,00603.1178,E,1,12,0.74,466.8,M,48.2,M,,*60
Pressure: 971.916748;
Altitude: 349.893494;
TemperatureCBaro: 28.216667;
AccelX: -0.240026;
AccelY: 0.089785;
AccelZ: 8.985713;
MagX: 0.173711;
MagY: -0.158086;
MagZ: 0.265511;
TemperatureCHumid: 26.005590;
Humidity: 31.384033;
TemperatureC: 27.000000;
Event: sub second micros:21801483/41998477; Event Count:22
PPS: GPS lock:1;
$GNZDA,185059.000,11,01,2018,,*42
$GPGGA,185059.000,4613.9826,N,00603.1178,E,1,12,0.74,466.8,M,48.2,M,,*61
Pressure: 971.887451;
Altitude: 350.145691;
TemperatureCBaro: 28.218750;
AccelX: -0.243617;
AccelY: 0.099362;
AccelZ: 8.973143;
MagX: 0.182379;
MagY: -0.143681;
MagZ: 0.266610;
TemperatureCHumid: 25.994864;
Humidity: 31.384033;
TemperatureC: 26.000000;
PPS: GPS lock:1;
$GNZDA,185100.000,11,01,2018,,*4F
$GPGGA,185100.000,4613.9826,N,00603.1178,E,1,12,0.74,466.8,M,48.2,M,,*6C
Pressure: 971.916748;
Altitude: 349.893494;
TemperatureCBaro: 28.225000;
AccelX: -0.235237;
AccelY: 0.079610;
AccelZ: 8.992896;
MagX: 0.177007;
MagY: -0.133061;
MagZ: 0.250862;
TemperatureCHumid: 26.005590;
Humidity: 31.353516;
TemperatureC: 27.000000;
PPS: GPS lock:1;
$GNZDA,185101.000,11,01,2018,,*4E
$GPGGA,185101.000,4613.9826,N,00603.1178,E,1,12,0.74,466.8,M,48.2,M,,*6D
Pressure: 971.915771;
Altitude: 349.901825;
TemperatureCBaro: 28.235416;
AccelX: -0.231646;
AccelY: 0.093377;
AccelZ: 8.995889;
MagX: 0.177740;
MagY: -0.155644;
MagZ: 0.267464;
TemperatureCHumid: 26.005590;
Humidity: 31.345886;
TemperatureC: 27.000000;
Event: sub second micros:7678033/41998477; Event Count:23
PPS: GPS lock:1;
$GNZDA,185102.000,11,01,2018,,*4D
$GPGGA,185102.000,4613.9826,N,00603.1178,E,1,12,0.74,466.8,M,48.2,M,,*6E
Pressure: 971.866455;
Altitude: 350.326111;
TemperatureCBaro: 28.239582;
AccelX: -0.241822;
AccelY: 0.093975;
AccelZ: 8.968354;
MagX: 0.219001;
MagY: -0.165166;
MagZ: 0.237800;
TemperatureCHumid: 26.016310;
Humidity: 31.315369;
TemperatureC: 27.000000;
PPS: GPS lock:1;
$GNZDA,185103.000,11,01,2018,,*4C
$GPGGA,185103.000,4613.9826,N,00603.1178,E,1,12,0.74,466.8,M,48.2,M,,*6F
Pressure: 971.931885;
Altitude: 349.762970;
TemperatureCBaro: 28.247917;
AccelX: -0.227456;
AccelY: 0.086792;
AccelZ: 8.999480;
MagX: 0.184332;
MagY: -0.151250;
MagZ: 0.268441;
TemperatureCHumid: 26.037764;
Humidity: 31.307739;
TemperatureC: 27.000000;
PPS: GPS lock:1;
$GNZDA,185104.000,11,01,2018,,*4B
$GPGGA,185104.000,4613.9826,N,00603.1178,E,1,12,0.74,466.8,M,48.2,M,,*68
Pressure: 971.883545;
Altitude: 350.179474;
TemperatureCBaro: 28.258333;
AccelX: -0.238829;
AccelY: 0.086194;
AccelZ: 9.012649;
MagX: 0.181646;
MagY: -0.140385;
MagZ: 0.266243;
TemperatureCHumid: 26.037764;
Humidity: 31.284851;
TemperatureC: 27.000000;
PPS: GPS lock:1;
$GNZDA,185105.000,11,01,2018,,*4A
$GPGGA,185105.000,4613.9826,N,00603.1178,E,1,12,0.74,466.8,M,48.2,M,,*69
Pressure: 971.960205;
Altitude: 349.519104;
TemperatureCBaro: 28.266666;
AccelX: -0.222069;
AccelY: 0.082004;
AccelZ: 8.996488;
MagX: 0.187872;
MagY: -0.142094;
MagZ: 0.267464;
TemperatureCHumid: 26.048491;
Humidity: 31.284851;
TemperatureC: 27.000000;
Event: sub second micros:29022336/41998476; Event Count:24
PPS: GPS lock:1;
$GNZDA,185106.000,11,01,2018,,*49
$GPGGA,185106.000,4613.9826,N,00603.1178,E,1,12,0.74,466.8,M,48.2,M,,*6A
Pressure: 971.973389;
Altitude: 349.405762;
TemperatureCBaro: 28.268749;
AccelX: -0.232843;
AccelY: 0.097567;
AccelZ: 8.979129;
MagX: 0.176031;
MagY: -0.164434;
MagZ: 0.266121;
TemperatureCHumid: 26.080664;
Humidity: 31.277222;
TemperatureC: 27.000000;
PPS: GPS lock:1;
$GNZDA,185107.000,11,01,2018,,*48
$GPGGA,185107.000,4613.9826,N,00603.1178,E,1,12,0.74,466.8,M,48.2,M,,*6B
Pressure: 971.901855;
Altitude: 350.021393;
TemperatureCBaro: 28.279167;
AccelX: -0.231048;
AccelY: 0.084997;
AccelZ: 8.918674;
MagX: 0.176763;
MagY: -0.143437;
MagZ: 0.267220;
TemperatureCHumid: 26.080664;
Humidity: 31.261963;
TemperatureC: 27.000000;
PPS: GPS lock:1;
$GNZDA,185108.000,11,01,2018,,*47
$GPGGA,185108.000,4613.9826,N,00603.1178,E,1,12,0.74,466.8,M,48.2,M,,*64
Pressure: 971.902588;
Altitude: 350.015167;
TemperatureCBaro: 28.283333;
AccelX: -0.236435;
AccelY: 0.084997;
AccelZ: 8.997086;
MagX: 0.184210;
MagY: -0.153203;
MagZ: 0.266488;
TemperatureCHumid: 26.069937;
Humidity: 31.223816;
TemperatureC: 27.000000;
Event: sub second micros:3079903/41998476; Event Count:25
Event: sub second micros:27673644/41998476; Event Count:26
PPS: GPS lock:1;
$GNZDA,185109.000,11,01,2018,,*46
$GPGGA,185109.000,4613.9826,N,00603.1178,E,1,12,0.74,466.8,M,48.2,M,,*65
Pressure: 971.969482;
Altitude: 349.439545;
TemperatureCBaro: 28.291668;
AccelX: -0.236435;
AccelY: 0.090384;
AccelZ: 8.962369;
MagX: 0.190802;
MagY: -0.175665;
MagZ: 0.266610;
TemperatureCHumid: 26.091391;
Humidity: 31.223816;
TemperatureC: 27.000000;
PPS: GPS lock:1;
$GNZDA,185110.000,11,01,2018,,*4E
$GPGGA,185110.000,4613.9826,N,00603.1178,E,1,13,0.72,466.8,M,48.2,M,,*6A
Pressure: 971.940674;
Altitude: 349.687592;
TemperatureCBaro: 28.299999;
AccelX: -0.235237;
AccelY: 0.098165;
AccelZ: 8.971946;
MagX: 0.172857;
MagY: -0.155156;
MagZ: 0.265389;
TemperatureCHumid: 26.112837;
Humidity: 31.216187;
TemperatureC: 27.000000;
PPS: GPS lock:1;
$GNZDA,185111.000,11,01,2018,,*4F
$GPGGA,185111.000,4613.9826,N,00603.1178,E,1,13,0.72,466.8,M,48.2,M,,*6B
Pressure: 971.918213;
Altitude: 349.880493;
TemperatureCBaro: 28.306250;
AccelX: -0.235237;
AccelY: 0.093975;
AccelZ: 8.983318;
MagX: 0.165410;
MagY: -0.147099;
MagZ: 0.268807;
TemperatureCHumid: 26.112837;
Humidity: 31.193298;
TemperatureC: 27.000000;
Event: sub second micros:7861637/41998476; Event Count:27
PPS: GPS lock:1;
$GNZDA,185112.000,11,01,2018,,*4C
$GPGGA,185112.000,4613.9826,N,00603.1178,E,1,13,0.72,466.8,M,48.2,M,,*68
Pressure: 971.915771;
Altitude: 349.901825;
TemperatureCBaro: 28.312500;
AccelX: -0.228653;
AccelY: 0.091581;
AccelZ: 8.970150;
MagX: 0.178106;
MagY: -0.148686;
MagZ: 0.266121;
TemperatureCHumid: 26.112837;
Humidity: 31.193298;
TemperatureC: 27.000000;
Event: sub second micros:13996705/41998476; Event Count:28
PPS: GPS lock:1;
$GNZDA,185113.000,11,01,2018,,*4D
$GPGGA,185113.000,4613.9826,N,00603.1178,E,1,13,0.72,466.8,M,48.2,M,,*69
Pressure: 971.898926;
Altitude: 350.046875;
TemperatureCBaro: 28.325001;
AccelX: -0.244216;
AccelY: 0.087391;
AccelZ: 8.964763;
MagX: 0.163457;
MagY: -0.155644;
MagZ: 0.265145;
TemperatureCHumid: 26.123564;
Humidity: 31.162781;
TemperatureC: 27.000000;
Event: sub second micros:24722643/41998475; Event Count:29
PPS: GPS lock:1;
$GNZDA,185114.000,11,01,2018,,*4A
$GPGGA,185114.000,4613.9826,N,00603.1178,E,1,13,0.72,466.8,M,48.2,M,,*6E
Pressure: 971.972900;
Altitude: 349.409912;
TemperatureCBaro: 28.333332;
AccelX: -0.244216;
AccelY: 0.084398;
AccelZ: 8.983917;
MagX: 0.165044;
MagY: -0.153935;
MagZ: 0.266121;
TemperatureCHumid: 26.123564;
Humidity: 31.147522;
TemperatureC: 27.000000;
Event: sub second micros:25708861/41998476; Event Count:30
Event: sub second micros:33021183/41998476; Event Count:31
PPS: GPS lock:1;
$GNZDA,185115.000,11,01,2018,,*4B
$GPGGA,185115.000,4613.9826,N,00603.1178,E,1,13,0.72,466.8,M,48.2,M,,*6F
Pressure: 971.959229;
Altitude: 349.527435;
TemperatureCBaro: 28.333332;
AccelX: -0.230449;
AccelY: 0.095172;
AccelZ: 8.992297;
MagX: 0.184698;
MagY: -0.156011;
MagZ: 0.270638;
TemperatureCHumid: 26.134291;
Humidity: 31.132263;
TemperatureC: 27.000000;
PPS: GPS lock:1;
$GNZDA,185116.000,11,01,2018,,*48
$GPGGA,185116.000,4613.9826,N,00603.1178,E,1,13,0.72,466.8,M,48.2,M,,*6C
Pressure: 971.895996;
Altitude: 350.071838;
TemperatureCBaro: 28.345833;
AccelX: -0.230449;
AccelY: 0.086792;
AccelZ: 8.953390;
MagX: 0.195563;
MagY: -0.150517;
MagZ: 0.250740;
TemperatureCHumid: 26.166464;
Humidity: 31.117004;
TemperatureC: 27.000000;
PPS: GPS lock:1;
Event: sub second micros:36582485/41998476; Event Count:32
$GNZDA,185117.000,11,01,2018,,*49
$GPGGA,185117.000,4613.9826,N,00603.1178,E,1,13,0.72,466.8,M,48.2,M,,*6D
Pressure: 971.899902;
Altitude: 350.038574;
TemperatureCBaro: 28.350000;
AccelX: -0.231646;
AccelY: 0.089785;
AccelZ: 8.985114;
MagX: 0.168462;
MagY: -0.150761;
MagZ: 0.268319;
TemperatureCHumid: 26.155737;
Humidity: 31.101746;
TemperatureC: 27.000000;
PPS: GPS lock:1;
$GNZDA,185118.000,11,01,2018,,*46
$GPGGA,185118.000,4613.9826,N,00603.1178,E,1,13,0.72,466.8,M,48.2,M,,*62
Pressure: 971.890381;
Altitude: 350.120209;
TemperatureCBaro: 28.356251;
AccelX: -0.248406;
AccelY: 0.093377;
AccelZ: 8.982121;
MagX: 0.152470;
MagY: -0.134404;
MagZ: 0.266366;
TemperatureCHumid: 26.177191;
Humidity: 31.071228;
TemperatureC: 27.000000;
Event: sub second micros:5120144/41998475; Event Count:33
Event: sub second micros:12599506/41998475; Event Count:34
PPS: GPS lock:1;
$GNZDA,185119.000,11,01,2018,,*47
$GPGGA,185119.000,4613.9826,N,00603.1178,E,1,13,0.72,466.8,M,48.2,M,,*63
Pressure: 971.916504;
Altitude: 349.895569;
TemperatureCBaro: 28.366667;
AccelX: -0.227456;
AccelY: 0.096370;
AccelZ: 8.979129;
MagX: 0.193243;
MagY: -0.150517;
MagZ: 0.267708;
TemperatureCHumid: 26.177191;
Humidity: 31.071228;
TemperatureC: 27.000000;
Event: sub second micros:649245/41998476; Event Count:35
Event: sub second micros:3708155/41998476; Event Count:36
PPS: GPS lock:1;
$GNZDA,185120.000,11,01,2018,,*4D
$GPGGA,185120.000,4613.9826,N,00603.1178,E,1,13,0.72,466.8,M,48.2,M,,*69
Pressure: 972.001709;
Altitude: 349.161896;
TemperatureCBaro: 28.372917;
AccelX: -0.221470;
AccelY: 0.102355;
AccelZ: 8.980925;
MagX: 0.180792;
MagY: -0.163335;
MagZ: 0.265633;
TemperatureCHumid: 26.187918;
Humidity: 31.063599;
TemperatureC: 27.000000;
PPS: GPS lock:1;
$GNZDA,185121.000,11,01,2018,,*4C
$GPGGA,185121.000,4613.9826,N,00603.1178,E,1,13,0.72,466.8,M,48.2,M,,*68
Pressure: 971.927979;
Altitude: 349.796783;
TemperatureCBaro: 28.381250;
AccelX: -0.230449;
AccelY: 0.075420;
AccelZ: 8.980326;
MagX: 0.178961;
MagY: -0.152226;
MagZ: 0.251595;
TemperatureCHumid: 26.198637;
Humidity: 31.040710;
TemperatureC: 27.000000;
PPS: GPS lock:1;
$GNZDA,185122.000,11,01,2018,,*4F
$GPGGA,185122.000,4613.9826,N,00603.1178,E,1,13,0.72,466.8,M,48.2,M,,*6B
Pressure: 971.961182;
Altitude: 349.510803;
TemperatureCBaro: 28.389584;
AccelX: -0.238829;
AccelY: 0.087990;
AccelZ: 8.961172;
MagX: 0.183844;
MagY: -0.150029;
MagZ: 0.264412;
TemperatureCHumid: 26.220091;
Humidity: 31.025452;
TemperatureC: 27.000000;
PPS: GPS lock:1;
$GNZDA,185123.000,11,01,2018,,*4E
$GPGGA,185123.000,4613.9826,N,00603.1178,E,1,13,0.72,466.8,M,48.2,M,,*6A
Pressure: 971.932617;
Altitude: 349.756744;
TemperatureCBaro: 28.397917;
AccelX: -0.223865;
AccelY: 0.082602;
AccelZ: 8.956982;
MagX: 0.179327;
MagY: -0.151006;
MagZ: 0.267708;
TemperatureCHumid: 26.209364;
Humidity: 31.002563;
TemperatureC: 27.000000;
Event: sub second micros:39904825/41998475; Event Count:37
PPS: GPS lock:1;
$GNZDA,185124.000,11,01,2018,,*49
$GPGGA,185124.000,4613.9826,N,00603.1178,E,1,13,0.72,466.8,M,48.2,M,,*6D
Pressure: 971.917725;
Altitude: 349.885162;
TemperatureCBaro: 28.400000;
AccelX: -0.217879;
AccelY: 0.084997;
AccelZ: 8.970749;
MagX: 0.193243;
MagY: -0.156133;
MagZ: 0.264168;
TemperatureCHumid: 26.241537;
Humidity: 31.002563;
TemperatureC: 27.000000;
PPS: GPS lock:1;
$GNZDA,185125.000,11,01,2018,,*48
$GPGGA,185125.000,4613.9826,N,00603.1178,E,1,13,0.72,466.8,M,48.2,M,,*6C
Pressure: 971.915771;
Altitude: 349.901825;
TemperatureCBaro: 28.408333;
AccelX: -0.222668;
AccelY: 0.089785;
AccelZ: 8.987509;
MagX: 0.191168;
MagY: -0.156255;
MagZ: 0.264901;
TemperatureCHumid: 26.230818;
Humidity: 30.994934;
TemperatureC: 27.000000;
PPS: GPS lock:1;
$GNZDA,185126.000,11,01,2018,,*4B
$GPGGA,185126.000,4613.9826,N,00603.1178,E,1,13,0.72,466.8,M,48.2,M,,*6F
Pressure: 971.941650;
Altitude: 349.678741;
TemperatureCBaro: 28.414583;
AccelX: -0.235237;
AccelY: 0.101757;
AccelZ: 8.955785;
MagX: 0.197150;
MagY: -0.151006;
MagZ: 0.251106;
TemperatureCHumid: 26.241537;
Humidity: 30.964417;
TemperatureC: 27.000000;
PPS: GPS lock:1;
$GNZDA,185127.000,11,01,2018,,*4A
$GPGGA,185127.000,4613.9826,N,00603.1178,E,1,13,0.72,466.8,M,48.2,M,,*6E
Pressure: 971.932129;
Altitude: 349.760895;
TemperatureCBaro: 28.422916;
AccelX: -0.235237;
AccelY: 0.088588;
AccelZ: 8.991100;
MagX: 0.176519;
MagY: -0.163579;
MagZ: 0.268807;
TemperatureCHumid: 26.252264;
Humidity: 30.964417;
TemperatureC: 27.000000;
Event: sub second micros:36642108/41998475; Event Count:38
PPS: GPS lock:1;
$GNZDA,185128.000,11,01,2018,,*45
$GPGGA,185128.000,4613.9826,N,00603.1178,E,1,13,0.72,466.8,M,48.2,M,,*61
Pressure: 971.930908;
Altitude: 349.771301;
TemperatureCBaro: 28.427082;
AccelX: -0.222069;
AccelY: 0.083800;
AccelZ: 8.978530;
MagX: 0.188238;
MagY: -0.146733;
MagZ: 0.265633;
TemperatureCHumid: 26.262991;
Humidity: 30.926270;
TemperatureC: 27.000000;
Event: sub second micros:24241431/41998474; Event Count:39
PPS: GPS lock:1;
$GNZDA,185129.000,11,01,2018,,*44
$GPGGA,185129.000,4613.9826,N,00603.1178,E,1,13,0.72,466.8,M,48.2,M,,*60
Pressure: 971.917480;
Altitude: 349.887238;
TemperatureCBaro: 28.437500;
AccelX: -0.234639;
AccelY: 0.096968;
AccelZ: 8.974939;
MagX: 0.187872;
MagY: -0.135136;
MagZ: 0.254769;
TemperatureCHumid: 26.262991;
Humidity: 30.911011;
TemperatureC: 27.000000;
PPS: GPS lock:1;
$GNZDA,185130.000,11,01,2018,,*4C
$GPGGA,185130.000,4613.9826,N,00603.1178,E,1,13,0.72,466.8,M,48.2,M,,*68
Pressure: 971.932373;
Altitude: 349.758820;
TemperatureCBaro: 28.441666;
AccelX: -0.225062;
AccelY: 0.089187;
AccelZ: 8.962369;
MagX: 0.184210;
MagY: -0.156987;
MagZ: 0.264657;
TemperatureCHumid: 26.273718;
Humidity: 30.880493;
TemperatureC: 27.000000;
PPS: GPS lock:1;
$GNZDA,185131.000,11,01,2018,,*4D
$GPGGA,185131.000,4613.9826,N,00603.1178,E,1,13,0.72,466.8,M,48.2,M,,*69
Pressure: 971.953857;
Altitude: 349.573700;
TemperatureCBaro: 28.454166;
AccelX: -0.246012;
AccelY: 0.090982;
AccelZ: 8.992896;
MagX: 0.198126;
MagY: -0.158940;
MagZ: 0.264168;
TemperatureCHumid: 26.284437;
Humidity: 30.888123;
TemperatureC: 27.000000;
PPS: GPS lock:1;
$GNZDA,185132.000,11,01,2018,,*4E
$GPGGA,185132.000,4613.9826,N,00603.1178,E,1,13,0.72,466.8,M,48.2,M,,*6A
Pressure: 971.957031;
Altitude: 349.546661;
TemperatureCBaro: 28.456249;
AccelX: -0.228653;
AccelY: 0.068237;
AccelZ: 8.980925;
MagX: 0.172613;
MagY: -0.142094;
MagZ: 0.251106;
TemperatureCHumid: 26.295164;
Humidity: 30.872864;
TemperatureC: 27.000000;
PPS: GPS lock:1;
$GNZDA,185133.000,11,01,2018,,*4F
$GPGGA,185133.000,4613.9826,N,00603.1178,E,1,13,0.72,466.8,M,48.2,M,,*6B
Pressure: 971.904297;
Altitude: 350.000610;
TemperatureCBaro: 28.464584;
AccelX: -0.223865;
AccelY: 0.080208;
AccelZ: 8.973143;
MagX: 0.186407;
MagY: -0.145634;
MagZ: 0.268075;
TemperatureCHumid: 26.295164;
Humidity: 30.849976;
TemperatureC: 27.000000;
Event: sub second micros:22266099/41998473; Event Count:40
PPS: GPS lock:1;
$GNZDA,185134.000,11,01,2018,,*48
$GPGGA,185134.000,4613.9826,N,00603.1178,E,1,13,0.72,466.8,M,48.2,M,,*6C
Pressure: 971.885986;
Altitude: 350.158173;
TemperatureCBaro: 28.470833;
AccelX: -0.219675;
AccelY: 0.098165;
AccelZ: 8.973143;
MagX: 0.205695;
MagY: -0.156743;
MagZ: 0.263070;
TemperatureCHumid: 26.327337;
Humidity: 30.849976;
TemperatureC: 27.000000;
Event: sub second micros:34070523/41998474; Event Count:41
PPS: GPS lock:1;
$GNZDA,185135.000,11,01,2018,,*49
$GPGGA,185135.000,4613.9826,N,00603.1178,E,1,13,0.72,466.8,M,48.2,M,,*6D
Pressure: 971.946289;
Altitude: 349.639221;
TemperatureCBaro: 28.481251;
AccelX: -0.216083;
AccelY: 0.096370;
AccelZ: 9.019233;
MagX: 0.169317;
MagY: -0.133183;
MagZ: 0.266732;
TemperatureCHumid: 26.316618;
Humidity: 30.834717;
TemperatureC: 27.000000;
PPS: GPS lock:1;
$GNZDA,185136.000,11,01,2018,,*4A
$GPGGA,185136.000,4613.9826,N,00603.1178,E,1,13,0.72,466.8,M,48.2,M,,*6E
Pressure: 971.959961;
Altitude: 349.521179;
TemperatureCBaro: 28.491667;
AccelX: -0.231646;
AccelY: 0.093975;
AccelZ: 8.983318;
MagX: 0.209113;
MagY: -0.157842;
MagZ: 0.266732;
TemperatureCHumid: 26.327337;
Humidity: 30.804199;
TemperatureC: 27.000000;
PPS: GPS lock:1;
$GNZDA,185137.000,11,01,2018,,*4B
$GPGGA,185137.000,4613.9826,N,00603.1178,E,1,13,0.72,466.8,M,48.2,M,,*6F
Pressure: 971.926514;
Altitude: 349.809265;
TemperatureCBaro: 28.493750;
AccelX: -0.236435;
AccelY: 0.076617;
AccelZ: 8.982720;
MagX: 0.205329;
MagY: -0.157231;
MagZ: 0.263314;
TemperatureCHumid: 26.338064;
Humidity: 30.788940;
TemperatureC: 27.000000;
Event: sub second micros:9014362/41998473; Event Count:42
PPS: GPS lock:1;
$GNZDA,185138.000,11,01,2018,,*44
$GPGGA,185138.000,4613.9826,N,00603.1178,E,1,13,0.72,466.8,M,48.2,M,,*60
Pressure: 971.917236;
Altitude: 349.889343;
TemperatureCBaro: 28.502083;
AccelX: -0.228653;
AccelY: 0.093975;
AccelZ: 8.986312;
MagX: 0.168218;
MagY: -0.130375;
MagZ: 0.265877;
TemperatureCHumid: 26.348791;
Humidity: 30.773682;
TemperatureC: 27.000000;
PPS: GPS lock:1;
$GNZDA,185139.000,11,01,2018,,*45
$GPGGA,185139.000,4613.9826,N,00603.1178,E,1,13,0.72,466.8,M,48.2,M,,*61
Pressure: 971.928711;
Altitude: 349.790527;
TemperatureCBaro: 28.508333;
AccelX: -0.233442;
AccelY: 0.091581;
AccelZ: 8.975537;
MagX: 0.203131;
MagY: -0.155034;
MagZ: 0.265877;
TemperatureCHumid: 26.348791;
Humidity: 30.773682;
TemperatureC: 27.000000;
Event: sub second micros:34363988/41998473; Event Count:43
Event: sub second micros:36303070/41998473; Event Count:44
PPS: GPS lock:1;
$GNZDA,185140.000,11,01,2018,,*4B
$GPGGA,185140.000,4613.9826,N,00603.1178,E,1,13,0.72,466.8,M,48.2,M,,*6F
Pressure: 971.945068;
Altitude: 349.649628;
TemperatureCBaro: 28.512501;
AccelX: -0.229850;
AccelY: 0.084398;
AccelZ: 8.967756;
MagX: 0.162114;
MagY: -0.147465;
MagZ: 0.250618;
TemperatureCHumid: 26.370245;
Humidity: 30.758423;
TemperatureC: 27.000000;
Event: sub second micros:20002806/41998474; Event Count:45
Event: sub second micros:41499650/41998474; Event Count:46
PPS: GPS lock:1;
$GNZDA,185141.000,11,01,2018,,*4A
$GPGGA,185141.000,4613.9826,N,00603.1178,E,1,13,0.72,466.8,M,48.2,M,,*6E
Pressure: 971.965332;
Altitude: 349.474915;
TemperatureCBaro: 28.522917;
AccelX: -0.216682;
AccelY: 0.104750;
AccelZ: 8.978530;
MagX: 0.168096;
MagY: -0.142460;
MagZ: 0.266121;
TemperatureCHumid: 26.380964;
Humidity: 30.750793;
TemperatureC: 27.000000;
PPS: GPS lock:1;
$GNZDA,185142.000,11,01,2018,,*49
$GPGGA,185142.000,4613.9826,N,00603.1178,E,1,13,0.72,466.8,M,48.2,M,,*6D
Pressure: 971.947021;
Altitude: 349.632477;
TemperatureCBaro: 28.527084;
AccelX: -0.217879;
AccelY: 0.097567;
AccelZ: 8.979129;
MagX: 0.164556;
MagY: -0.165777;
MagZ: 0.264657;
TemperatureCHumid: 26.380964;
Humidity: 30.743164;
TemperatureC: 27.000000;
PPS: GPS lock:1;
$GNZDA,185143.000,11,01,2018,,*48
$GPGGA,185143.000,4613.9826,N,00603.1178,E,1,13,0.72,466.8,M,48.2,M,,*6C
Pressure: 971.928467;
Altitude: 349.792603;
TemperatureCBaro: 28.533333;
AccelX: -0.226259;
AccelY: 0.089785;
AccelZ: 8.984516;
MagX: 0.175787;
MagY: -0.140873;
MagZ: 0.263436;
TemperatureCHumid: 26.380964;
Humidity: 30.712646;
TemperatureC: 27.000000;
Event: sub second micros:1379668/41998473; Event Count:47
PPS: GPS lock:1;
$GNZDA,185144.000,11,01,2018,,*4F
$GPGGA,185144.000,4613.9826,N,00603.1178,E,1,13,0.72,466.8,M,48.2,M,,*6B
Pressure: 971.925293;
Altitude: 349.819641;
TemperatureCBaro: 28.541668;
AccelX: -0.225660;
AccelY: 0.090384;
AccelZ: 8.988107;
MagX: 0.182623;
MagY: -0.155644;
MagZ: 0.266121;
TemperatureCHumid: 26.402418;
Humidity: 30.689758;
TemperatureC: 27.000000;
Event: sub second micros:40822751/41998473; Event Count:48
PPS: GPS lock:1;
$GNZDA,185145.000,11,01,2018,,*4E
$GPGGA,185145.000,4613.9826,N,00603.1178,E,1,13,0.72,466.8,M,48.2,M,,*6A
Pressure: 971.957764;
Altitude: 349.540436;
TemperatureCBaro: 28.552082;
AccelX: -0.232843;
AccelY: 0.101158;
AccelZ: 8.984516;
MagX: 0.196905;
MagY: -0.167730;
MagZ: 0.266976;
TemperatureCHumid: 26.402418;
Humidity: 30.682129;
TemperatureC: 27.000000;
PPS: GPS lock:1;
$GNZDA,185146.000,11,01,2018,,*4D
$GPGGA,185146.000,4613.9826,N,00603.1178,E,1,13,0.72,466.8,M,48.2,M,,*69
Pressure: 971.990234;
Altitude: 349.260681;
TemperatureCBaro: 28.556250;
AccelX: -0.234639;
AccelY: 0.089785;
AccelZ: 8.979129;
MagX: 0.167608;
MagY: -0.154180;
MagZ: 0.265633;
TemperatureCHumid: 26.413145;
Humidity: 30.666870;
TemperatureC: 27.000000;
PPS: GPS lock:1;
$GNZDA,185147.000,11,01,2018,,*4C
$GPGGA,185147.000,4613.9826,N,00603.1178,E,1,13,0.72,466.8,M,48.2,M,,*68
Pressure: 971.943604;
Altitude: 349.662109;
TemperatureCBaro: 28.564583;
AccelX: -0.231048;
AccelY: 0.099362;
AccelZ: 8.950995;
MagX: 0.173467;
MagY: -0.148808;
MagZ: 0.268075;
TemperatureCHumid: 26.423864;
Humidity: 30.643982;
TemperatureC: 27.000000;
PPS: GPS lock:1;
$GNZDA,185148.000,11,01,2018,,*43
$GPGGA,185148.000,4613.9826,N,00603.1178,E,1,13,0.72,466.8,M,48.2,M,,*67
Pressure: 971.975098;
Altitude: 349.391205;
TemperatureCBaro: 28.570833;
AccelX: -0.238829;
AccelY: 0.090384;
AccelZ: 8.958777;
MagX: 0.185064;
MagY: -0.157964;
MagZ: 0.265633;
TemperatureCHumid: 26.434591;
Humidity: 30.636353;
TemperatureC: 27.000000;
PPS: GPS lock:1;
$GNZDA,185149.000,11,01,2018,,*42
$GPGGA,185149.000,4613.9826,N,00603.1178,E,1,13,0.72,466.8,M,48.2,M,,*66
Pressure: 971.954102;
Altitude: 349.571625;
TemperatureCBaro: 28.577084;
AccelX: -0.234040;
AccelY: 0.082004;
AccelZ: 8.965961;
MagX: 0.170171;
MagY: -0.150273;
MagZ: 0.267220;
TemperatureCHumid: 26.445318;
Humidity: 30.621094;
TemperatureC: 27.000000;
PPS: GPS lock:1;
$GNZDA,185150.000,11,01,2018,,*4A
$GPGGA,185150.000,4613.9826,N,00603.1178,E,1,13,0.72,466.8,M,48.2,M,,*6E
Pressure: 971.964600;
Altitude: 349.481140;
TemperatureCBaro: 28.583332;
AccelX: -0.223266;
AccelY: 0.080807;
AccelZ: 8.979129;
MagX: 0.164678;
MagY: -0.158208;
MagZ: 0.265023;
TemperatureCHumid: 26.445318;
Humidity: 30.613464;
TemperatureC: 27.000000;
Event: sub second micros:13032464/41998473; Event Count:49
Event: sub second micros:18582718/41998473; Event Count:50
Event: sub second micros:33022768/41998473; Event Count:51
PPS: GPS lock:1;
$GNZDA,185151.000,11,01,2018,,*4B
$GPGGA,185151.000,4613.9826,N,00603.1178,E,1,13,0.72,466.8,M,48.2,M,,*6F
Pressure: 971.909424;
Altitude: 349.956421;
TemperatureCBaro: 28.587500;
AccelX: -0.228653;
AccelY: 0.066441;
AccelZ: 8.973742;
MagX: 0.167241;
MagY: -0.147710;
MagZ: 0.267708;
TemperatureCHumid: 26.477491;
Humidity: 30.598206;
TemperatureC: 27.000000;
PPS: GPS lock:1;
$GNZDA,185152.000,11,01,2018,,*48
$GPGGA,185152.000,4613.9826,N,00603.1178,E,1,13,0.72,466.8,M,48.2,M,,*6C
Pressure: 971.955566;
Altitude: 349.559143;
TemperatureCBaro: 28.595833;
AccelX: -0.229252;
AccelY: 0.091581;
AccelZ: 8.969551;
MagX: 0.192877;
MagY: -0.126957;
MagZ: 0.250618;
TemperatureCHumid: 26.466764;
Humidity: 30.582947;
TemperatureC: 27.000000;
Event: sub second micros:11041697/41998473; Event Count:52
PPS: GPS lock:1;
$GNZDA,185153.000,11,01,2018,,*49
$GPGGA,185153.000,4613.9826,N,00603.1178,E,1,13,0.72,466.8,M,48.2,M,,*6D
Pressure: 971.957031;
Altitude: 349.546661;
TemperatureCBaro: 28.602083;
AccelX: -0.222668;
AccelY: 0.080807;
AccelZ: 8.976136;
MagX: 0.135990;
MagY: -0.149419;
MagZ: 0.266243;
TemperatureCHumid: 26.477491;
Humidity: 30.575317;
TemperatureC: 27.000000;
Event: sub second micros:20841332/41998472; Event Count:53
PPS: GPS lock:1;
$GNZDA,185154.000,11,01,2018,,*4E
$GPGGA,185154.000,4613.9826,N,00603.1178,E,1,12,0.78,466.8,M,48.2,M,,*61
Pressure: 971.980957;
Altitude: 349.340759;
TemperatureCBaro: 28.610416;
AccelX: -0.240026;
AccelY: 0.083201;
AccelZ: 8.989305;
MagX: 0.185675;
MagY: -0.145634;
MagZ: 0.265877;
TemperatureCHumid: 26.488218;
Humidity: 30.560059;
TemperatureC: 27.000000;
Event: sub second micros:6611521/41998472; Event Count:54
PPS: GPS lock:1;
$GNZDA,185155.000,11,01,2018,,*4F
$GPGGA,185155.000,4613.9826,N,00603.1178,E,1,13,0.74,466.8,M,48.2,M,,*6D
Pressure: 971.945068;
Altitude: 349.649628;
TemperatureCBaro: 28.618750;
AccelX: -0.228055;
AccelY: 0.082602;
AccelZ: 8.979129;
MagX: 0.183355;
MagY: -0.138310;
MagZ: 0.267098;
TemperatureCHumid: 26.477491;
Humidity: 30.544800;
TemperatureC: 27.000000;
PPS: GPS lock:1;
$GNZDA,185156.000,11,01,2018,,*4C
$GPGGA,185156.000,4613.9826,N,00603.1178,E,1,13,0.74,466.8,M,48.2,M,,*6E
Pressure: 971.946533;
Altitude: 349.637146;
TemperatureCBaro: 28.622917;
AccelX: -0.231646;
AccelY: 0.092778;
AccelZ: 8.977932;
MagX: 0.196539;
MagY: -0.150151;
MagZ: 0.250130;
TemperatureCHumid: 26.509665;
Humidity: 30.514282;
TemperatureC: 27.000000;
Event: sub second micros:21974558/41998472; Event Count:55
PPS: GPS lock:1;
$GNZDA,185157.000,11,01,2018,,*4D
$GPGGA,185157.000,4613.9826,N,00603.1178,E,1,14,0.69,466.8,M,48.2,M,,*64
Pressure: 971.948242;
Altitude: 349.622070;
TemperatureCBaro: 28.629166;
AccelX: -0.232843;
AccelY: 0.076018;
AccelZ: 8.985114;
MagX: 0.201666;
MagY: -0.158940;
MagZ: 0.266976;
TemperatureCHumid: 26.520391;
Humidity: 30.521912;
TemperatureC: 27.000000;
PPS: GPS lock:1;
$GNZDA,185158.000,11,01,2018,,*42
$GPGGA,185158.000,4613.9826,N,00603.1178,E,1,14,0.69,466.8,M,48.2,M,,*6B
Pressure: 971.926514;
Altitude: 349.809265;
TemperatureCBaro: 28.635418;
AccelX: -0.219076;
AccelY: 0.077814;
AccelZ: 8.978530;
MagX: 0.192389;
MagY: -0.141118;
MagZ: 0.265633;
TemperatureCHumid: 26.531118;
Humidity: 30.491394;
TemperatureC: 27.000000;
PPS: GPS lock:1;
$GNZDA,185159.000,11,01,2018,,*43
$GPGGA,185159.000,4613.9826,N,00603.1178,E,1,14,0.69,466.8,M,48.2,M,,*6A
Pressure: 971.984131;
Altitude: 349.313202;
TemperatureCBaro: 28.641666;
AccelX: -0.235237;
AccelY: 0.096370;
AccelZ: 8.988706;
MagX: 0.203742;
MagY: -0.165166;
MagZ: 0.265877;
TemperatureCHumid: 26.531118;
Humidity: 30.468506;
TemperatureC: 27.000000;
PPS: GPS lock:1;
$GNZDA,185200.000,11,01,2018,,*4C
$GPGGA,185200.000,4613.9826,N,00603.1178,E,1,14,0.69,466.8,M,48.2,M,,*65
Pressure: 971.962891;
Altitude: 349.496246;
TemperatureCBaro: 28.650000;
AccelX: -0.242420;
AccelY: 0.078412;
AccelZ: 9.008458;
MagX: 0.195563;
MagY: -0.145512;
MagZ: 0.265755;
TemperatureCHumid: 26.531118;
Humidity: 30.460876;
TemperatureC: 27.000000;
PPS: GPS lock:1;
$GNZDA,185201.000,11,01,2018,,*4D
$GPGGA,185201.000,4613.9826,N,00603.1178,E,1,14,0.69,466.8,M,48.2,M,,*64
Pressure: 971.944336;
Altitude: 349.655853;
TemperatureCBaro: 28.654167;
AccelX: -0.233442;
AccelY: 0.096968;
AccelZ: 8.974939;
MagX: 0.165166;
MagY: -0.160039;
MagZ: 0.267098;
TemperatureCHumid: 26.541845;
Humidity: 30.445618;
TemperatureC: 27.000000;
PPS: GPS lock:1;
$GNZDA,185202.000,11,01,2018,,*4E
$GPGGA,185202.000,4613.9826,N,00603.1178,E,1,14,0.69,466.8,M,48.2,M,,*67
Pressure: 971.946045;
Altitude: 349.641296;
TemperatureCBaro: 28.658333;
AccelX: -0.228055;
AccelY: 0.085595;
AccelZ: 8.980326;
MagX: 0.190069;
MagY: -0.156499;
MagZ: 0.265145;
TemperatureCHumid: 26.552565;
Humidity: 30.430359;
TemperatureC: 27.000000;
PPS: GPS lock:1;
$GNZDA,185203.000,11,01,2018,,*4F
$GPGGA,185203.000,4613.9826,N,00603.1178,E,1,14,0.69,466.8,M,48.2,M,,*66
Pressure: 971.966309;
Altitude: 349.466583;
TemperatureCBaro: 28.670834;
AccelX: -0.239427;
AccelY: 0.084997;
AccelZ: 8.990501;
MagX: 0.155889;
MagY: -0.155278;
MagZ: 0.267220;
TemperatureCHumid: 26.552565;
Humidity: 30.422729;
TemperatureC: 27.000000;
PPS: GPS lock:1;
$GNZDA,185204.000,11,01,2018,,*48
$GPGGA,185204.000,4613.9826,N,00603.1178,E,1,14,0.69,466.8,M,48.2,M,,*61
Pressure: 971.973145;
Altitude: 349.407837;
TemperatureCBaro: 28.679167;
AccelX: -0.227456;
AccelY: 0.086194;
AccelZ: 8.979129;
MagX: 0.177618;
MagY: -0.147343;
MagZ: 0.265511;
TemperatureCHumid: 26.584745;
Humidity: 30.415100;
TemperatureC: 27.000000;
PPS: GPS lock:1;
$GNZDA,185205.000,11,01,2018,,*49
$GPGGA,185205.000,4613.9826,N,00603.1178,E,1,14,0.69,466.8,M,48.2,M,,*60
Pressure: 971.950439;
Altitude: 349.603333;
TemperatureCBaro: 28.683334;
AccelX: -0.234639;
AccelY: 0.073624;
AccelZ: 8.989305;
MagX: 0.174688;
MagY: -0.165044;
MagZ: 0.266976;
TemperatureCHumid: 26.574018;
Humidity: 30.384583;
TemperatureC: 27.000000;
Event: sub second micros:16614865/41998471; Event Count:56
PPS: GPS lock:1;
$GNZDA,185206.000,11,01,2018,,*4A
$GPGGA,185206.000,4613.9826,N,00603.1178,E,1,14,0.69,466.8,M,48.2,M,,*63
Pressure: 971.975098;
Altitude: 349.391205;
TemperatureCBaro: 28.687500;
AccelX: -0.217879;
AccelY: 0.083800;
AccelZ: 8.990501;
MagX: 0.177252;
MagY: -0.162481;
MagZ: 0.265023;
TemperatureCHumid: 26.595465;
Humidity: 30.369324;
TemperatureC: 27.000000;
PPS: GPS lock:1;
$GNZDA,185207.000,11,01,2018,,*4B
$GPGGA,185207.000,4613.9826,N,00603.1178,E,1,14,0.69,466.8,M,48.2,M,,*62
Pressure: 971.948730;
Altitude: 349.617920;
TemperatureCBaro: 28.700001;
AccelX: -0.237033;
AccelY: 0.092778;
AccelZ: 8.982720;
MagX: 0.160772;
MagY: -0.150151;
MagZ: 0.267708;
TemperatureCHumid: 26.606192;
Humidity: 30.376953;
TemperatureC: 27.000000;
PPS: GPS lock:1;
$GNZDA,185208.000,11,01,2018,,*44
$GPGGA,185208.000,4613.9826,N,00603.1178,E,1,13,0.71,466.8,M,48.2,M,,*63
Pressure: 971.958252;
Altitude: 349.536285;
TemperatureCBaro: 28.704166;
AccelX: -0.231646;
AccelY: 0.095771;
AccelZ: 8.983318;
MagX: 0.168950;
MagY: -0.146245;
MagZ: 0.265755;
TemperatureCHumid: 26.616919;
Humidity: 30.331177;
TemperatureC: 27.000000;
PPS: GPS lock:1;
$GNZDA,185209.000,11,01,2018,,*45
$GPGGA,185209.000,4613.9826,N,00603.1178,E,1,13,0.71,466.8,M,48.2,M,,*62
Pressure: 971.987549;
Altitude: 349.283569;
TemperatureCBaro: 28.710417;
AccelX: -0.233442;
AccelY: 0.098165;
AccelZ: 8.979129;
MagX: 0.159551;
MagY: -0.155766;
MagZ: 0.263924;
TemperatureCHumid: 26.606192;
Humidity: 30.346436;
TemperatureC: 27.000000;
PPS: GPS lock:1;
$GNZDA,185210.000,11,01,2018,,*4D
$GPGGA,185210.000,4613.9826,N,00603.1178,E,1,13,0.71,466.8,M,48.2,M,,*6A
Pressure: 971.970215;
Altitude: 349.432800;
TemperatureCBaro: 28.714584;
AccelX: -0.229850;
AccelY: 0.095172;
AccelZ: 8.985114;
MagX: 0.164068;
MagY: -0.158696;
MagZ: 0.265145;
TemperatureCHumid: 26.616919;
Humidity: 30.315918;
TemperatureC: 27.000000;
Event: sub second micros:19759059/41998471; Event Count:57
Event: sub second micros:27568428/41998471; Event Count:58
PPS: GPS lock:1;
$GNZDA,185211.000,11,01,2018,,*4C
$GPGGA,185211.000,4613.9826,N,00603.1178,E,1,13,0.71,466.8,M,48.2,M,,*6B
Pressure: 971.940186;
Altitude: 349.691742;
TemperatureCBaro: 28.727083;
AccelX: -0.242420;
AccelY: 0.079011;
AccelZ: 8.983917;
MagX: 0.156499;
MagY: -0.152715;
MagZ: 0.267342;
TemperatureCHumid: 26.627645;
Humidity: 30.300659;
TemperatureC: 27.000000;
PPS: GPS lock:1;
$GNZDA,185212.000,11,01,2018,,*4F
$GPGGA,185212.000,4613.9826,N,00603.1178,E,1,13,0.71,466.8,M,48.2,M,,*68
Pressure: 971.960938;
Altitude: 349.512878;
TemperatureCBaro: 28.729168;
AccelX: -0.226858;
AccelY: 0.080807;
AccelZ: 8.964763;
MagX: 0.181890;
MagY: -0.162114;
MagZ: 0.253304;
TemperatureCHumid: 26.649092;
Humidity: 30.300659;
TemperatureC: 27.000000;
PPS: GPS lock:1;
$GNZDA,185213.000,11,01,2018,,*4E
$GPGGA,185213.000,4613.9826,N,00603.1178,E,1,13,0.71,466.8,M,48.2,M,,*69
Pressure: 971.988281;
Altitude: 349.277344;
TemperatureCBaro: 28.739582;
AccelX: -0.218478;
AccelY: 0.090982;
AccelZ: 8.989305;
MagX: 0.180914;
MagY: -0.140019;
MagZ: 0.266854;
TemperatureCHumid: 26.638372;
Humidity: 30.293030;
TemperatureC: 27.000000;
PPS: GPS lock:1;
$GNZDA,185214.000,11,01,2018,,*49
$GPGGA,185214.000,4613.9826,N,00603.1178,E,1,13,0.71,466.8,M,48.2,M,,*6E
Pressure: 971.938965;
Altitude: 349.702148;
TemperatureCBaro: 28.741667;
AccelX: -0.234639;
AccelY: 0.086194;
AccelZ: 8.977333;
MagX: 0.184698;
MagY: -0.145634;
MagZ: 0.265877;
TemperatureCHumid: 26.659819;
Humidity: 30.262512;
TemperatureC: 27.000000;
