INFO: Setting HV 1&2 to: 128
Detector threshold: 1160
Detector setup finished
INFO: Sensor setup complete
INFO: Running
Pressure: 760.000000;
Altitude: 2360.589600;
TemperatureCBaro: 42.500000;
AccelX: 19.609110;
AccelY: 19.609110;
AccelZ: 19.609110;
MagX: -0.021241;
MagY: 0.008057;
MagZ: 0.012940;
TemperatureCHumid: 23.109808;
Humidity: 29.156250;
TemperatureC: 25.000000;
PPS: GPS lock:1;
$GNZDA,212759.000,02,02,2018,,*49
$GPGGA,212759.000,4613.9751,N,00603.1130,E,1,5,2.57,431.8,M,48.2,M,,*5F
$GNZDA,212800.000,0Pressure: 965.926025;
Altitude: 401.601013;
TemperatureCBaro: 28.133333;
AccelX: -0.392063;
AccelY: 0.041900;
AccelZ: 9.668680;
MagX: 0.155034;
MagY: -0.182501;
MagZ: 0.301523;
TemperatureCHumid: 23.120535;
Humidity: 29.125732;
TemperatureC: 25.000000;
$PMTKPressure: 965.926025;
Altitude: 401.601013;
TemperatureCBaro: 28.133333;
AccelX: -0.420794;
AccelY: 0.017358;
AccelZ: 9.695017;
MagX: 0.155034;
MagY: -0.182501;
MagZ: 0.301523;
TemperatureCHumid: 23.120535;
Humidity: 29.133362;
001,314,3*36
$PMTKN
$GN20Pressure: 965.900391;
Altitude: 401.823120;
TemperatureCBaro: 28.214584;
AccelX: -0.395654;
AccelY: 0.034717;
AccelZ: 9.689630;
MagX: 0.155278;
MagY: -0.182623;
MagZ: 0.299448;
TemperatureCHumid: 23.131262;
Humidity: 29.140991;
TemperatureC: 25.000000;
PPS: GPS lock:1;
$GNZDA,212815.000,02,02,2018,,*4E
$GPGGA,212815.000,4613.9735,N,00603.1122,E,1,5,2.58,431.1,M,48.2,M,,*5F
Pressure: 965.930420;
Altitude: 401.562866;
TemperatureCBaro: 28.247917;
AccelX: -0.413012;
AccelY: -0.005986;
AccelZ: 9.763254;
MagX: 0.155034;
MagY: -0.181646;
MagZ: 0.302011;
TemperatureCHumid: 23.131262;
Humidity: 29.156250;
TemperatureC: 25.000000;
Event: sub second micros:7023641/41998544; Event Count:0
PPS: GPS lock:1;
$GNZDA,212816.000,02,02,2018,,*4D
$GPGGA,212816.000,4613.9735,N,00603.1122,E,1,5,2.58,431.1,M,48.2,M,,*5C
Pressure: 965.966309;
Altitude: 401.252441;
TemperatureCBaro: 28.260418;
AccelX: -0.414210;
AccelY: 0.035914;
AccelZ: 9.757268;
MagX: 0.154302;
MagY: -0.181036;
MagZ: 0.299326;
TemperatureCHumid: 23.131262;
Humidity: 29.163879;
TemperatureC: 25.000000;
Event: sub second micros:6261217/41998544; Event Count:1
PPS: GPS lock:1;
$GNZDA,212817.000,02,02,2018,,*4C
$GPGGA,212817.000,4613.9735,N,00603.1122,E,1,5,2.59,431.1,M,48.2,M,,*5C
Pressure: 965.986084;
Altitude: 401.081573;
TemperatureCBaro: 28.272917;
AccelX: -0.433364;
AccelY: 0.019154;
AccelZ: 9.606429;
MagX: 0.154424;
MagY: -0.180792;
MagZ: 0.302499;
TemperatureCHumid: 23.131262;
Humidity: 29.163879;
TemperatureC: 25.000000;
PPS: GPS lock:1;
Event: sub second micros:25396569/41998544; Event Count:2
$GNZDA,212818.000,02,02,2018,,*43
$GPGGA,212818.000,4613.9735,N,00603.1122,E,1,5,2.59,431.1,M,48.2,M,,*53
Pressure: 965.943115;
Altitude: 401.453125;
TemperatureCBaro: 28.281250;
AccelX: -0.399844;
AccelY: 0.026936;
AccelZ: 9.700404;
MagX: 0.155156;
MagY: -0.181280;
MagZ: 0.299570;
TemperatureCHumid: 23.174162;
Humidity: 29.171509;
TemperatureC: 25.000000;
Event: sub second micros:33788928/41998544; Event Count:3
PPS: GPS lock:1;
$GNZDA,212819.000,02,02,2018,,*42
$GPGGA,212819.000,4613.9735,N,00603.1122,E,1,5,2.59,431.1,M,48.2,M,,*52
Pressure: 966.001221;
Altitude: 400.950409;
TemperatureCBaro: 28.291668;
AccelX: -0.435159;
AccelY: 0.026936;
AccelZ: 9.720157;
MagX: 0.155766;
MagY: -0.181280;
MagZ: 0.302011;
TemperatureCHumid: 23.163435;
Humidity: 29.171509;
TemperatureC: 25.000000;
PPS: GPS lock:1;
$GNZDA,212820.000,02,02,2018,,*48
$GPGGA,212820.000,4613.9735,N,00603.1122,E,1,5,2.59,431.1,M,48.2,M,,*58
Pressure: 966.015869;
Altitude: 400.823425;
TemperatureCBaro: 28.295834;
AccelX: -0.401640;
AccelY: 0.016161;
AccelZ: 9.697411;
MagX: 0.155034;
MagY: -0.180181;
MagZ: 0.299814;
TemperatureCHumid: 23.163435;
Humidity: 29.179138;
TemperatureC: 25.000000;
PPS: GPS lock:1;
$GNZDA,212821.000,02,02,2018,,*49
$GPGGA,212821.000,4613.9735,N,00603.1122,E,1,5,2.59,431.1,M,48.2,M,,*59
Pressure: 966.045166;
Altitude: 400.569977;
TemperatureCBaro: 28.306250;
AccelX: -0.405231;
AccelY: 0.027534;
AccelZ: 9.712376;
MagX: 0.153813;
MagY: -0.177862;
MagZ: 0.302744;
TemperatureCHumid: 23.184889;
Humidity: 29.179138;
TemperatureC: 25.000000;
Event: sub second micros:16983180/41998544; Event Count:4
Event: sub second micros:17367874/41998544; Event Count:5
PPS: GPS lock:1;
$GNZDA,212822.000,02,02,2018,,*4A
$GPGGA,212822.000,4613.9735,N,00603.1122,E,1,5,4.37,431.1,M,48.2,M,,*54
Pressure: 965.964844;
Altitude: 401.264984;
TemperatureCBaro: 28.312500;
AccelX: -0.398647;
AccelY: 0.028133;
AccelZ: 9.730931;
MagX: 0.153081;
MagY: -0.180914;
MagZ: 0.297372;
TemperatureCHumid: 23.174162;
Humidity: 29.186768;
TemperatureC: 25.000000;
Event: sub second micros:22813483/41998542; Event Count:6
PPS: GPS lock:1;
$GNZDA,212823.000,02,02,2018,,*4B
$GPGGA,212823.000,4613.9735,N,00603.1122,E,1,5,2.59,431.1,M,48.2,M,,*5B
Pressure: 965.988525;
Altitude: 401.060150;
TemperatureCBaro: 28.322918;
AccelX: -0.410618;
AccelY: 0.015563;
AccelZ: 9.681250;
MagX: 0.154302;
MagY: -0.181646;
MagZ: 0.301767;
TemperatureCHumid: 23.195616;
Humidity: 29.194397;
TemperatureC: 25.000000;
Event: sub second micros:10795827/41998543; Event Count:7
PPS: GPS lock:1;
$GNZDA,212824.000,02,02,2018,,*4C
$GPGGA,212824.000,4613.9735,N,00603.1122,E,1,5,2.59,431.1,M,48.2,M,,*5C
Pressure: 966.006592;
Altitude: 400.903900;
TemperatureCBaro: 28.325001;
AccelX: -0.407027;
AccelY: 0.031126;
AccelZ: 9.655511;
MagX: 0.153935;
MagY: -0.180425;
MagZ: 0.299081;
TemperatureCHumid: 23.195616;
Humidity: 29.209656;
TemperatureC: 25.000000;
Event: sub second micros:4056746/41998542; Event Count:8
Event: sub second micros:15192664/41998542; Event Count:9
PPS: GPS lock:1;
$GNZDA,212825.000,02,02,2018,,*4D
$GPGGA,212825.000,4613.9735,N,00603.1122,E,1,5,2.59,431.1,M,48.2,M,,*5D
Pressure: 965.907227;
Altitude: 401.763519;
TemperatureCBaro: 28.337500;
AccelX: -0.352557;
AccelY: 0.059258;
AccelZ: 9.402317;
MagX: 0.153813;
MagY: -0.180792;
MagZ: 0.303964;
TemperatureCHumid: 23.227789;
Humidity: 29.209656;
TemperatureC: 25.000000;
Event: sub second micros:24593764/41998542; Event Count:10
PPS: GPS lock:1;
$GNZDA,212826.000,02,02,2018,,*4E
$GPGGA,212826.000,4613.9735,N,00603.1122,E,1,5,2.59,431.1,M,48.2,M,,*5E
Pressure: 965.924072;
Altitude: 401.617737;
TemperatureCBaro: 28.341667;
AccelX: -0.444737;
AccelY: -0.040104;
AccelZ: 9.450202;
MagX: 0.155156;
MagY: -0.181280;
MagZ: 0.300058;
TemperatureCHumid: 23.227789;
Humidity: 29.209656;
TemperatureC: 25.000000;
Event: sub second micros:19572453/41998541; Event Count:11
PPS: GPS lock:1;
$GNZDA,212827.000,02,02,2018,,*4F
$GPGGA,212827.000,4613.9735,N,00603.1122,E,1,5,2.59,431.1,M,48.2,M,,*5F
Pressure: 965.962402;
Altitude: 401.286407;
TemperatureCBaro: 28.347916;
AccelX: -0.385478;
AccelY: 0.028731;
AccelZ: 9.708185;
MagX: 0.155278;
MagY: -0.181890;
MagZ: 0.301767;
TemperatureCHumid: 23.227789;
Humidity: 29.209656;
TemperatureC: 25.000000;
Event: sub second micros:4211207/41998542; Event Count:12
Event: sub second micros:23834205/41998542; Event Count:13
PPS: GPS lock:1;
$GNZDA,212828.000,02,02,2018,,*40
$GPGGA,212828.000,4613.9735,N,00603.1122,E,1,5,2.59,431.1,M,48.2,M,,*50
Pressure: 965.937012;
Altitude: 401.505890;
TemperatureCBaro: 28.358334;
AccelX: -0.433364;
AccelY: 0.022746;
AccelZ: 9.824905;
MagX: 0.155034;
MagY: -0.180670;
MagZ: 0.298837;
TemperatureCHumid: 23.259962;
Humidity: 29.217285;
TemperatureC: 25.000000;
Event: sub second micros:12023546/41998541; Event Count:14
Event: sub second micros:22078815/41998541; Event Count:15
PPS: GPS lock:1;
$GNZDA,212829.000,02,02,2018,,*41
$GPGGA,212829.000,4613.9735,N,00603.1122,E,1,5,2.59,431.1,M,48.2,M,,*51
Pressure: 965.980957;
Altitude: 401.125977;
TemperatureCBaro: 28.362499;
AccelX: -0.390865;
AccelY: 0.023943;
AccelZ: 9.674665;
MagX: 0.154424;
MagY: -0.181158;
MagZ: 0.301401;
TemperatureCHumid: 23.238516;
Humidity: 29.217285;
TemperatureC: 25.000000;
PPS: GPS lock:1;
$GNZDA,212830.000,02,02,2018,,*49
$GPGGA,212830.000,4613.9735,N,00603.1122,E,1,5,2.59,431.1,M,48.2,M,,*59
Pressure: 965.910645;
Altitude: 401.734283;
TemperatureCBaro: 28.364582;
AccelX: -0.429174;
AccelY: 0.020351;
AccelZ: 9.748289;
MagX: 0.154546;
MagY: -0.181036;
MagZ: 0.299326;
TemperatureCHumid: 23.270689;
Humidity: 29.232544;
TemperatureC: 25.000000;
Event: sub second micros:24947098/41998540; Event Count:16
Event: sub second micros:37140506/41998540; Event Count:17
PPS: GPS lock:1;
$GNZDA,212831.000,02,02,2018,,*48
$GPGGA,212831.000,4613.9735,N,00603.1122,E,1,5,2.59,431.1,M,48.2,M,,*58
Pressure: 965.970459;
Altitude: 401.216400;
TemperatureCBaro: 28.377083;
AccelX: -0.409421;
AccelY: -0.002394;
AccelZ: 9.679454;
MagX: 0.154668;
MagY: -0.181402;
MagZ: 0.301401;
TemperatureCHumid: 23.259962;
Humidity: 29.224915;
TemperatureC: 25.000000;
Event: sub second micros:12967427/41998541; Event Count:18
Event: sub second micros:15707794/41998541; Event Count:19
Event: sub second micros:27317034/41998541; Event Count:20
PPS: GPS lock:1;
$GNZDA,212832.000,02,02,2018,,*4B
$GPGGA,212832.000,4613.9735,N,00603.1122,E,1,5,2.59,431.1,M,48.2,M,,*5B
Pressure: 965.937012;
Altitude: 401.505890;
TemperatureCBaro: 28.381250;
AccelX: -0.429174;
AccelY: 0.009577;
AccelZ: 9.790190;
MagX: 0.154790;
MagY: -0.181036;
MagZ: 0.299936;
TemperatureCHumid: 23.270689;
Humidity: 29.232544;
TemperatureC: 25.000000;
Event: sub second micros:276826/41998540; Event Count:21
PPS: GPS lock:1;
$GNZDA,212833.000,02,02,2018,,*4A
$GPGGA,212833.000,4613.9735,N,00603.1122,E,1,5,2.59,431.1,M,48.2,M,,*5A
Pressure: 966.010254;
Altitude: 400.872009;
TemperatureCBaro: 28.391666;
AccelX: -0.397450;
AccelY: 0.032323;
AccelZ: 9.713573;
MagX: 0.154057;
MagY: -0.182134;
MagZ: 0.302377;
TemperatureCHumid: 23.281416;
Humidity: 29.224915;
TemperatureC: 25.000000;
PPS: GPS lock:1;
$GNZDA,212834.000,02,02,2018,,*4D
$GPGGA,212834.000,4613.9735,N,00603.1122,E,1,5,2.59,431.1,M,48.2,M,,*5D
Pressure: 966.025879;
Altitude: 400.737213;
TemperatureCBaro: 28.395832;
AccelX: -0.408224;
AccelY: 0.028133;
AccelZ: 9.747691;
MagX: 0.154912;
MagY: -0.180792;
MagZ: 0.298471;
TemperatureCHumid: 23.292135;
Humidity: 29.217285;
TemperatureC: 25.000000;
Event: sub second micros:12922832/41998539; Event Count:22
PPS: GPS lock:1;
$GNZDA,212835.000,02,02,2018,,*4C
$GPGGA,212835.000,4613.9735,N,00603.1122,E,1,5,2.59,431.1,M,48.2,M,,*5C
Pressure: 966.026611;
Altitude: 400.730927;
TemperatureCBaro: 28.402084;
AccelX: -0.402837;
AccelY: 0.022147;
AccelZ: 9.727939;
MagX: 0.154180;
MagY: -0.180548;
MagZ: 0.301035;
TemperatureCHumid: 23.302862;
Humidity: 29.232544;
TemperatureC: 25.000000;
Event: sub second micros:13095231/41998540; Event Count:23
PPS: GPS lock:1;
$GNZDA,212836.000,02,02,2018,,*4F
$GPGGA,212836.000,4613.9735,N,00603.1122,E,1,5,2.60,431.1,M,48.2,M,,*55
Pressure: 965.909912;
Altitude: 401.740540;
TemperatureCBaro: 28.406250;
AccelX: -0.401041;
AccelY: 0.011373;
AccelZ: 9.711178;
MagX: 0.154790;
MagY: -0.180670;
MagZ: 0.299814;
TemperatureCHumid: 23.302862;
Humidity: 29.247803;
TemperatureC: 25.000000;
PPS: GPS lock:1;
$GNZDA,212837.000,02,02,2018,,*4E
$GPGGA,212837.000,4613.9735,N,00603.1122,E,1,5,2.60,431.1,M,48.2,M,,*54
Pressure: 965.958740;
Altitude: 401.317780;
TemperatureCBaro: 28.414583;
AccelX: -0.406428;
AccelY: 0.011373;
AccelZ: 9.727939;
MagX: 0.154057;
MagY: -0.180914;
MagZ: 0.301523;
TemperatureCHumid: 23.313589;
Humidity: 29.232544;
TemperatureC: 25.000000;
Event: sub second micros:32906086/41998538; Event Count:24
PPS: GPS lock:1;
$GNZDA,212838.000,02,02,2018,,*41
$GPGGA,212838.000,4613.9735,N,00603.1122,E,1,5,2.60,431.1,M,48.2,M,,*5B
Pressure: 965.965576;
Altitude: 401.258728;
TemperatureCBaro: 28.416668;
AccelX: -0.408822;
AccelY: 0.022746;
AccelZ: 9.732727;
MagX: 0.155034;
MagY: -0.180670;
MagZ: 0.299814;
TemperatureCHumid: 23.313589;
Humidity: 29.232544;
TemperatureC: 25.000000;
Event: sub second micros:28779811/41998539; Event Count:25
PPS: GPS lock:1;
$GNZDA,212839.000,02,02,2018,,*40
$GPGGA,212839.000,4613.9735,N,00603.1122,E,1,5,2.60,431.1,M,48.2,M,,*5A
Pressure: 965.979492;
Altitude: 401.138519;
TemperatureCBaro: 28.422916;
AccelX: -0.401041;
AccelY: 0.020950;
AccelZ: 9.711777;
MagX: 0.154668;
MagY: -0.181036;
MagZ: 0.302133;
TemperatureCHumid: 23.345762;
Humidity: 29.232544;
TemperatureC: 25.000000;
Event: sub second micros:11589445/41998538; Event Count:26
Event: sub second micros:15153765/41998538; Event Count:27
PPS: GPS lock:1;
$GNZDA,212840.000,02,02,2018,,*4E
$GPGGA,212840.000,4613.9735,N,00603.1122,E,1,6,1.80,431.1,M,48.2,M,,*5A
Pressure: 965.983887;
Altitude: 401.100372;
TemperatureCBaro: 28.433334;
AccelX: -0.408224;
AccelY: 0.018556;
AccelZ: 9.717164;
MagX: 0.154912;
MagY: -0.181768;
MagZ: 0.300424;
TemperatureCHumid: 23.345762;
Humidity: 29.255432;
TemperatureC: 25.000000;
PPS: GPS lock:1;
$GNZDA,212841.000,02,02,2018,,*4F
$GPGGA,212841.000,4613.9735,N,00603.1122,E,1,6,1.80,431.1,M,48.2,M,,*5B
Pressure: 965.967529;
Altitude: 401.242004;
TemperatureCBaro: 28.441666;
AccelX: -0.401041;
AccelY: 0.028731;
AccelZ: 9.723150;
MagX: 0.154790;
MagY: -0.181402;
MagZ: 0.301401;
TemperatureCHumid: 23.367216;
Humidity: 29.247803;
TemperatureC: 25.000000;
Event: sub second micros:1973627/41998538; Event Count:28
PPS: GPS lock:1;
$GNZDA,212842.000,02,02,2018,,*4C
$GPGGA,212842.000,4613.9735,N,00603.1122,E,1,6,2.99,431.1,M,48.2,M,,*53
Pressure: 965.887695;
Altitude: 401.932861;
TemperatureCBaro: 28.447918;
AccelX: -0.412414;
AccelY: 0.018556;
AccelZ: 9.703996;
MagX: 0.155889;
MagY: -0.179937;
MagZ: 0.298837;
TemperatureCHumid: 23.356489;
Humidity: 29.224915;
TemperatureC: 25.000000;
Event: sub second micros:40872207/41998538; Event Count:29
PPS: GPS lock:1;
$GNZDA,212843.000,02,02,2018,,*4D
$GPGGA,212843.000,4613.9735,N,00603.1122,E,1,6,2.99,431.1,M,48.2,M,,*52
Pressure: 965.930176;
Altitude: 401.564941;
TemperatureCBaro: 28.454166;
AccelX: -0.409421;
AccelY: 0.020351;
AccelZ: 9.729733;
MagX: 0.153935;
MagY: -0.181036;
MagZ: 0.302133;
TemperatureCHumid: 23.367216;
Humidity: 29.240173;
TemperatureC: 25.000000;
PPS: GPS lock:1;
$GNZDA,212844.000,02,02,2018,,*4A
$GPGGA,212844.000,4613.9735,N,00603.1122,E,1,6,1.80,431.1,M,48.2,M,,*5E
Pressure: 966.030518;
Altitude: 400.696960;
TemperatureCBaro: 28.460417;
AccelX: -0.398647;
AccelY: 0.030527;
AccelZ: 9.714769;
MagX: 0.154424;
MagY: -0.180670;
MagZ: 0.299448;
TemperatureCHumid: 23.377935;
Humidity: 29.255432;
TemperatureC: 25.000000;
PPS: GPS lock:1;
$GNZDA,212845.000,02,02,2018,,*4B
$GPGGA,212845.000,4613.9735,N,00603.1122,E,1,6,1.79,431.1,M,48.2,M,,*59
Pressure: 965.970215;
Altitude: 401.218475;
TemperatureCBaro: 28.466667;
AccelX: -0.413012;
AccelY: 0.023943;
AccelZ: 9.692622;
MagX: 0.153935;
MagY: -0.181768;
MagZ: 0.301645;
TemperatureCHumid: 23.410116;
Humidity: 29.247803;
TemperatureC: 25.000000;
PPS: GPS lock:1;
$GNZDA,212846.000,02,02,2018,,*48
$GPGGA,212846.000,4613.9735,N,00603.1122,E,1,6,2.98,431.1,M,48.2,M,,*56
Pressure: 965.928467;
Altitude: 401.580109;
TemperatureCBaro: 28.475000;
AccelX: -0.414210;
AccelY: 0.019154;
AccelZ: 9.720756;
MagX: 0.154424;
MagY: -0.180792;
MagZ: 0.299448;
TemperatureCHumid: 23.410116;
Humidity: 29.263062;
TemperatureC: 25.000000;
Event: sub second micros:33562954/41998536; Event Count:30
PPS: GPS lock:1;
$GNZDA,212847.000,02,02,2018,,*49
$GPGGA,212847.000,4613.9735,N,00603.1122,E,1,6,1.80,431.1,M,48.2,M,,*5D
Pressure: 965.970459;
Altitude: 401.216400;
TemperatureCBaro: 28.483334;
AccelX: -0.413012;
AccelY: 0.035914;
AccelZ: 9.716565;
MagX: 0.155278;
MagY: -0.180914;
MagZ: 0.300424;
TemperatureCHumid: 23.431562;
Humidity: 29.247803;
TemperatureC: 25.000000;
Event: sub second micros:10556503/41998536; Event Count:31
PPS: GPS lock:1;
$GNZDA,212848.000,02,02,2018,,*46
$GPGGA,212848.000,4613.9735,N,00603.1122,E,1,6,2.98,431.1,M,48.2,M,,*58
Pressure: 965.926270;
Altitude: 401.598907;
TemperatureCBaro: 28.487499;
AccelX: -0.410618;
AccelY: -0.043097;
AccelZ: 9.563332;
MagX: 0.154668;
MagY: -0.181036;
MagZ: 0.299448;
TemperatureCHumid: 23.399389;
Humidity: 29.232544;
TemperatureC: 25.000000;
Event: sub second micros:10085498/41998537; Event Count:32
Event: sub second micros:36943566/41998537; Event Count:33
Event: sub second micros:41070908/41998537; Event Count:34
PPS: GPS lock:1;
$GNZDA,212849.000,02,02,2018,,*47
$GPGGA,212849.000,4613.9735,N,00603.1122,E,1,6,1.79,431.1,M,48.2,M,,*55
Pressure: 965.965332;
Altitude: 401.260803;
TemperatureCBaro: 28.497917;
AccelX: -0.438152;
AccelY: -0.008380;
AccelZ: 9.927860;
MagX: 0.154424;
MagY: -0.181280;
MagZ: 0.300912;
TemperatureCHumid: 23.410116;
Humidity: 29.240173;
TemperatureC: 25.000000;
Event: sub second micros:22514791/41998535; Event Count:35
PPS: GPS lock:1;
$GNZDA,212850.000,02,02,2018,,*4F
$GPGGA,212850.000,4613.9735,N,00603.1122,E,1,6,1.79,431.1,M,48.2,M,,*5D
Pressure: 966.016602;
Altitude: 400.817139;
TemperatureCBaro: 28.508333;
AccelX: -0.421991;
AccelY: -0.012570;
AccelZ: 9.815329;
MagX: 0.154424;
MagY: -0.180670;
MagZ: 0.299692;
TemperatureCHumid: 23.453016;
Humidity: 29.240173;
TemperatureC: 25.000000;
PPS: GPS lock:1;
$GNZDA,212851.000,02,02,2018,,*4E
$GPGGA,212851.000,4613.9735,N,00603.1122,E,1,6,1.79,431.1,M,48.2,M,,*5C
Pressure: 965.978760;
Altitude: 401.144806;
TemperatureCBaro: 28.508333;
AccelX: -0.411815;
AccelY: 0.006584;
AccelZ: 9.756071;
MagX: 0.155400;
MagY: -0.180425;
MagZ: 0.298959;
TemperatureCHumid: 23.442289;
Humidity: 29.240173;
TemperatureC: 25.000000;
PPS: GPS lock:1;
$GNZDA,212852.000,02,02,2018,,*4D
$GPGGA,212852.000,4613.9735,N,00603.1122,E,1,6,1.79,431.1,M,48.2,M,,*5F
Pressure: 965.913330;
Altitude: 401.710754;
TemperatureCBaro: 28.516666;
AccelX: -0.418998;
AccelY: 0.032921;
AccelZ: 9.689032;
MagX: 0.155156;
MagY: -0.180425;
MagZ: 0.297372;
TemperatureCHumid: 23.463743;
Humidity: 29.232544;
TemperatureC: 25.000000;
Event: sub second micros:28187331/41998535; Event Count:36
PPS: GPS lock:1;
$GNZDA,212853.000,02,02,2018,,*4C
$GPGGA,212853.000,4613.9735,N,00603.1122,E,1,6,1.79,431.1,M,48.2,M,,*5E
Pressure: 965.926270;
Altitude: 401.598907;
TemperatureCBaro: 28.527084;
AccelX: -0.376500;
AccelY: 0.034717;
AccelZ: 9.495694;
MagX: 0.154424;
MagY: -0.180914;
MagZ: 0.301645;
TemperatureCHumid: 23.474463;
Humidity: 29.240173;
TemperatureC: 25.000000;
Event: sub second micros:40563145/41998535; Event Count:37
PPS: GPS lock:1;
$GNZDA,212854.000,02,02,2018,,*4B
$GPGGA,212854.000,4613.9735,N,00603.1122,E,1,6,1.79,431.1,M,48.2,M,,*59
Pressure: 965.923584;
Altitude: 401.622437;
TemperatureCBaro: 28.533333;
AccelX: -0.391464;
AccelY: 0.014366;
AccelZ: 9.674665;
MagX: 0.154302;
MagY: -0.181158;
MagZ: 0.298593;
TemperatureCHumid: 23.474463;
Humidity: 29.232544;
TemperatureC: 25.000000;
Event: sub second micros:41018796/41998534; Event Count:38
PPS: GPS lock:1;
$GNZDA,212855.000,02,02,2018,,*4A
$GPGGA,212855.000,4613.9735,N,00603.1122,E,1,6,1.79,431.1,M,48.2,M,,*58
Pressure: 965.974365;
Altitude: 401.182953;
TemperatureCBaro: 28.537500;
AccelX: -0.402837;
AccelY: 0.037111;
AccelZ: 9.821315;
MagX: 0.154057;
MagY: -0.181036;
MagZ: 0.301401;
TemperatureCHumid: 23.506643;
Humidity: 29.217285;
TemperatureC: 25.000000;
Event: sub second micros:30932637/41998535; Event Count:39
PPS: GPS lock:1;
$GNZDA,212856.000,02,02,2018,,*49
$GPGGA,212856.000,4613.9735,N,00603.1122,E,1,6,2.98,431.1,M,48.2,M,,*57
Pressure: 965.923584;
Altitude: 401.622437;
TemperatureCBaro: 28.539583;
AccelX: -0.413012;
AccelY: 0.021548;
AccelZ: 9.746494;
MagX: 0.154668;
MagY: -0.181158;
MagZ: 0.299081;
TemperatureCHumid: 23.495916;
Humidity: 29.240173;
TemperatureC: 25.000000;
Event: sub second micros:31280581/41998534; Event Count:40
PPS: GPS lock:1;
$GNZDA,212857.000,02,02,2018,,*48
$GPGGA,212857.000,4613.9735,N,00603.1122,E,1,6,2.97,431.1,M,48.2,M,,*59
Pressure: 965.945068;
Altitude: 401.436401;
TemperatureCBaro: 28.552082;
AccelX: -0.386077;
AccelY: 0.025140;
AccelZ: 9.519038;
MagX: 0.154668;
MagY: -0.180914;
MagZ: 0.301157;
TemperatureCHumid: 23.506643;
Humidity: 29.240173;
TemperatureC: 25.000000;
PPS: GPS lock:1;
$GNZDA,212858.000,02,02,2018,,*47
$GPGGA,212858.000,4613.9735,N,00603.1122,E,1,6,2.97,431.1,M,48.2,M,,*56
Pressure: 965.927979;
Altitude: 401.584290;
TemperatureCBaro: 28.554167;
AccelX: -0.410020;
AccelY: 0.022147;
AccelZ: 9.635160;
MagX: 0.153935;
MagY: -0.180914;
MagZ: 0.299081;
TemperatureCHumid: 23.528090;
Humidity: 29.240173;
TemperatureC: 25.000000;
Event: sub second micros:30026660/41998533; Event Count:41
PPS: GPS lock:1;
$GNZDA,212859.000,02,02,2018,,*46
$GPGGA,212859.000,4613.9735,N,00603.1122,E,1,6,1.79,431.1,M,48.2,M,,*54
Pressure: 965.954834;
Altitude: 401.351746;
TemperatureCBaro: 28.564583;
AccelX: -0.396252;
AccelY: 0.022746;
AccelZ: 9.624386;
MagX: 0.153935;
MagY: -0.181280;
MagZ: 0.301401;
TemperatureCHumid: 23.549543;
Humidity: 29.232544;
TemperatureC: 25.000000;
PPS: GPS lock:1;
Event: sub second micros:1770580/41998534; Event Count:42
$GNZDA,212900.000,02,02,2018,,*4B
$GPGGA,212900.000,4613.9735,N,00603.1122,E,1,6,1.79,431.1,M,48.2,M,,*59
Pressure: 965.942871;
Altitude: 401.455200;
TemperatureCBaro: 28.570833;
AccelX: -0.404632;
AccelY: 0.023943;
AccelZ: 9.734522;
MagX: 0.155034;
MagY: -0.180792;
MagZ: 0.299203;
TemperatureCHumid: 23.549543;
Humidity: 29.217285;
TemperatureC: 25.000000;
Event: sub second micros:11018177/41998533; Event Count:43
Event: sub second micros:39693305/41998533; Event Count:44
PPS: GPS lock:1;
$GNZDA,212901.000,02,02,2018,,*4A
$GPGGA,212901.000,4613.9735,N,00603.1122,E,1,6,1.79,431.1,M,48.2,M,,*58
Pressure: 965.942627;
Altitude: 401.457306;
TemperatureCBaro: 28.575001;
AccelX: -0.432167;
AccelY: 0.035914;
AccelZ: 9.833286;
MagX: 0.154912;
MagY: -0.180181;
MagZ: 0.301523;
TemperatureCHumid: 23.570990;
Humidity: 29.217285;
TemperatureC: 25.000000;
Event: sub second micros:39304859/41998533; Event Count:45
PPS: GPS lock:1;
$GNZDA,212902.000,02,02,2018,,*49
$GPGGA,212902.000,4613.9735,N,00603.1122,E,1,6,2.97,431.1,M,48.2,M,,*58
Pressure: 965.952881;
Altitude: 401.368469;
TemperatureCBaro: 28.585417;
AccelX: -0.411815;
AccelY: 0.013169;
AccelZ: 9.764451;
MagX: 0.153203;
MagY: -0.180425;
MagZ: 0.299448;
TemperatureCHumid: 23.549543;
Humidity: 29.217285;
TemperatureC: 25.000000;
Event: sub second micros:8768096/41998532; Event Count:46
PPS: GPS lock:1;
$GNZDA,212903.000,02,02,2018,,*48
$GPGGA,212903.000,4613.9735,N,00603.1122,E,1,6,2.97,431.1,M,48.2,M,,*59
Pressure: 965.957275;
Altitude: 401.330841;
TemperatureCBaro: 28.587500;
AccelX: -0.396252;
AccelY: 0.021548;
AccelZ: 9.748888;
MagX: 0.154302;
MagY: -0.180548;
MagZ: 0.300302;
TemperatureCHumid: 23.570990;
Humidity: 29.217285;
TemperatureC: 25.000000;
PPS: GPS lock:1;
$GNZDA,212904.000,02,02,2018,,*4F
$GPGGA,212904.000,4613.9735,N,00603.1122,E,1,6,1.79,431.1,M,48.2,M,,*5D
Pressure: 965.908936;
Altitude: 401.748901;
TemperatureCBaro: 28.593750;
AccelX: -0.417202;
AccelY: 0.010774;
AccelZ: 9.712974;
MagX: 0.154424;
MagY: -0.180914;
MagZ: 0.298837;
TemperatureCHumid: 23.570990;
Humidity: 29.202026;
TemperatureC: 25.000000;
PPS: GPS lock:1;
$GNZDA,212905.000,02,02,2018,,*4E
$GPGGA,212905.000,4613.9735,N,00603.1122,E,1,6,1.79,431.1,M,48.2,M,,*5C
Pressure: 966.038818;
Altitude: 400.624847;
TemperatureCBaro: 28.602083;
AccelX: -0.420195;
AccelY: 0.008380;
AccelZ: 9.800963;
MagX: 0.157109;
MagY: -0.181158;
MagZ: 0.301401;
TemperatureCHumid: 23.603163;
Humidity: 29.217285;
TemperatureC: 25.000000;
Event: sub second micros:3667619/41998533; Event Count:47
PPS: GPS lock:1;
$GNZDA,212906.000,02,02,2018,,*4D
$GPGGA,212906.000,4613.9735,N,00603.1122,E,1,6,1.79,431.1,M,48.2,M,,*5F
Pressure: 965.954590;
Altitude: 401.353821;
TemperatureCBaro: 28.610416;
AccelX: -0.442342;
AccelY: 0.002394;
AccelZ: 9.651321;
MagX: 0.153813;
MagY: -0.181036;
MagZ: 0.300058;
TemperatureCHumid: 23.581717;
Humidity: 29.202026;
TemperatureC: 25.000000;
Event: sub second micros:20155326/41998531; Event Count:48
PPS: GPS lock:1;
$GNZDA,212907.000,02,02,2018,,*4C
$GPGGA,212907.000,4613.9788,N,00603.1096,E,1,6,1.79,435.2,M,48.2,M,,*51
Pressure: 965.944092;
Altitude: 401.444763;
TemperatureCBaro: 28.616667;
AccelX: -0.432167;
AccelY: 0.010176;
AccelZ: 9.697411;
MagX: 0.154668;
MagY: -0.181158;
MagZ: 0.301401;
TemperatureCHumid: 23.603163;
Humidity: 29.194397;
TemperatureC: 25.000000;
PPS: GPS lock:1;
$GNZDA,212908.000,02,02,2018,,*43
$GPGGA,212908.000,4613.9792,N,00603.1095,E,1,6,1.79,435.4,M,48.2,M,,*50
Pressure: 965.871338;
Altitude: 402.074493;
TemperatureCBaro: 28.625000;
AccelX: -0.390865;
AccelY: 0.052075;
AccelZ: 9.680053;
MagX: 0.153813;
MagY: -0.181402;
MagZ: 0.299814;
TemperatureCHumid: 23.624617;
Humidity: 29.179138;
TemperatureC: 25.000000;
PPS: GPS lock:1;
$GNZDA,212909.000,02,02,2018,,*42
$GPGGA,212909.000,4613.9792,N,00603.1094,E,1,6,2.96,435.5,M,48.2,M,,*53
Pressure: 965.944092;
Altitude: 401.444763;
TemperatureCBaro: 28.631250;
AccelX: -0.401640;
AccelY: 0.012570;
AccelZ: 9.665688;
MagX: 0.154912;
MagY: -0.181280;
MagZ: 0.301035;
TemperatureCHumid: 23.646063;
Humidity: 29.186768;
TemperatureC: 25.000000;
PPS: GPS lock:1;
$GNZDA,212910.000,02,02,2018,,*4A
$GPGGA,212910.000,4613.9794,N,00603.1094,E,1,6,1.79,435.6,M,48.2,M,,*5C
Pressure: 965.912354;
Altitude: 401.719116;
TemperatureCBaro: 28.639584;
AccelX: -0.412414;
AccelY: 0.030527;
AccelZ: 9.713573;
MagX: 0.156133;
MagY: -0.179449;
MagZ: 0.295785;
TemperatureCHumid: 23.635344;
Humidity: 29.186768;
TemperatureC: 25.000000;
Event: sub second micros:32766482/41998531; Event Count:49
PPS: GPS lock:1;
$GNZDA,212911.000,02,02,2018,,*4B
$GPGGA,212911.000,4613.9794,N,00603.1094,E,1,6,1.79,435.6,M,48.2,M,,*5D
Pressure: 965.921143;
Altitude: 401.643341;
TemperatureCBaro: 28.647917;
AccelX: -0.404632;
AccelY: 0.023344;
AccelZ: 9.671074;
MagX: 0.154302;
MagY: -0.181158;
MagZ: 0.300790;
TemperatureCHumid: 23.635344;
Humidity: 29.186768;
TemperatureC: 25.000000;
PPS: GPS lock:1;
$GNZDA,212912.000,02,02,2018,,*48
$GPGGA,212912.000,4613.9794,N,00603.1094,E,1,6,1.79,435.6,M,48.2,M,,*5E
Pressure: 965.938477;
Altitude: 401.493347;
TemperatureCBaro: 28.656250;
AccelX: -0.401041;
AccelY: 0.019753;
AccelZ: 9.715368;
MagX: 0.156499;
MagY: -0.182012;
MagZ: 0.297128;
TemperatureCHumid: 23.667517;
Humidity: 29.163879;
TemperatureC: 25.000000;
Event: sub second micros:1946160/41998530; Event Count:50
PPS: GPS lock:1;
$GNZDA,212913.000,02,02,2018,,*49
$GPGGA,212913.000,4613.9794,N,00603.1094,E,1,6,1.79,435.6,M,48.2,M,,*5F
Pressure: 965.919678;
Altitude: 401.655884;
TemperatureCBaro: 28.664583;
AccelX: -0.421991;
AccelY: 0.009577;
AccelZ: 9.724945;
MagX: 0.156499;
MagY: -0.181402;
MagZ: 0.299326;
TemperatureCHumid: 23.667517;
Humidity: 29.156250;
TemperatureC: 25.000000;
PPS: GPS lock:1;
Event: sub second micros:18740658/41998530; Event Count:51
Event: sub second micros:33565861/41998530; Event Count:52
$GNZDA,212914.000,02,02,2018,,*4E
$GPGGA,212914.000,4613.9794,N,00603.1094,E,1,6,1.79,435.6,M,48.2,M,,*58
Pressure: 965.897949;
Altitude: 401.844025;
TemperatureCBaro: 28.666668;
AccelX: -0.435159;
AccelY: 0.023943;
AccelZ: 9.782408;
MagX: 0.155889;
MagY: -0.181768;
MagZ: 0.296152;
TemperatureCHumid: 23.678244;
Humidity: 29.163879;
TemperatureC: 25.000000;
PPS: GPS lock:1;
$GNZDA,212915.000,02,02,2018,,*4F
$GPGGA,212915.000,4613.9794,N,00603.1094,E,1,6,1.79,435.6,M,48.2,M,,*59
Pressure: 965.904053;
Altitude: 401.791229;
TemperatureCBaro: 28.674999;
AccelX: -0.405830;
AccelY: 0.038907;
AccelZ: 9.736917;
MagX: 0.156377;
MagY: -0.181280;
MagZ: 0.299203;
TemperatureCHumid: 23.699690;
Humidity: 29.156250;
TemperatureC: 25.000000;
PPS: GPS lock:1;
$GNZDA,212916.000,02,02,2018,,*4C
$GPGGA,212916.000,4613.9794,N,00603.1094,E,1,6,1.79,435.6,M,48.2,M,,*5A
Pressure: 965.948975;
Altitude: 401.402435;
TemperatureCBaro: 28.681250;
AccelX: -0.406428;
AccelY: 0.025140;
AccelZ: 9.771035;
MagX: 0.155889;
MagY: -0.180792;
MagZ: 0.297494;
TemperatureCHumid: 23.710417;
Humidity: 29.140991;
TemperatureC: 25.000000;
PPS: GPS lock:1;
$GNZDA,212917.000,02,02,2018,,*4D
$GPGGA,212917.000,4613.9794,N,00603.1094,E,1,6,1.79,435.6,M,48.2,M,,*5B
Pressure: 965.906982;
Altitude: 401.765625;
TemperatureCBaro: 28.687500;
AccelX: -0.401640;
AccelY: 0.024541;
AccelZ: 9.705791;
MagX: 0.153691;
MagY: -0.181280;
MagZ: 0.297250;
TemperatureCHumid: 23.710417;
Humidity: 29.148621;
TemperatureC: 25.000000;
PPS: GPS lock:1;
$GNZDA,212918.000,02,02,2018,,*42
$GPGGA,212918.000,4613.9794,N,00603.1094,E,1,6,2.96,435.6,M,48.2,M,,*56
Pressure: 965.904785;
Altitude: 401.784973;
TemperatureCBaro: 28.695833;
AccelX: -0.347170;
AccelY: 0.021548;
AccelZ: 9.516644;
MagX: 0.156255;
MagY: -0.179937;
MagZ: 0.299448;
TemperatureCHumid: 23.731871;
Humidity: 29.148621;
TemperatureC: 25.000000;
Event: sub second micros:920896/41998529; Event Count:53
Event: sub second micros:21562426/41998529; Event Count:54
Event: sub second micros:31621275/41998529; Event Count:55
PPS: GPS lock:1;
$GNZDA,212919.000,02,02,2018,,*43
$GPGGA,212919.000,4613.9794,N,00603.1094,E,1,7,1.40,435.6,M,48.2,M,,*5E
Pressure: 965.897949;
Altitude: 401.844025;
TemperatureCBaro: 28.702084;
AccelX: -0.369915;
AccelY: 0.008979;
AccelZ: 9.531010;
MagX: 0.154790;
MagY: -0.180914;
MagZ: 0.301645;
TemperatureCHumid: 23.731871;
Humidity: 29.148621;
TemperatureC: 25.000000;
Event: sub second micros:9427025/41998529; Event Count:56
PPS: GPS lock:1;
$GNZDA,212920.000,02,02,2018,,*49
$GPGGA,212920.000,4613.9794,N,00603.1094,E,1,7,1.40,435.6,M,48.2,M,,*54
Pressure: 965.936035;
Altitude: 401.514252;
TemperatureCBaro: 28.714584;
AccelX: -0.375901;
AccelY: 0.013169;
AccelZ: 9.642941;
MagX: 0.154668;
MagY: -0.180670;
MagZ: 0.300302;
TemperatureCHumid: 23.753317;
Humidity: 29.140991;
TemperatureC: 25.000000;
PPS: GPS lock:1;
$GNZDA,212921.000,02,02,2018,,*48
$GPGGA,212921.000,4613.9794,N,00603.1094,E,1,7,1.40,435.6,M,48.2,M,,*55
Pressure: 965.933838;
Altitude: 401.533600;
TemperatureCBaro: 28.720833;
AccelX: -0.399245;
AccelY: 0.030527;
AccelZ: 9.699805;
MagX: 0.153691;
MagY: -0.181402;
MagZ: 0.300668;
TemperatureCHumid: 23.764044;
Humidity: 29.125732;
TemperatureC: 25.000000;
Event: sub second micros:17223281/41998529; Event Count:57
Event: sub second micros:40780213/41998529; Event Count:58
PPS: GPS lock:1;
$GNZDA,212922.000,02,02,2018,,*4B
$GPGGA,212922.000,4613.9794,N,00603.1094,E,1,7,1.40,435.6,M,48.2,M,,*56
Pressure: 965.932129;
Altitude: 401.548218;
TemperatureCBaro: 28.725000;
AccelX: -0.397450;
AccelY: 0.023943;
AccelZ: 9.679454;
MagX: 0.153691;
MagY: -0.181158;
MagZ: 0.299081;
TemperatureCHumid: 23.753317;
Humidity: 29.125732;
TemperatureC: 25.000000;
Event: sub second micros:10951008/41998528; Event Count:59
Event: sub second micros:14872244/41998528; Event Count:60
PPS: GPS lock:1;
$GNZDA,212923.000,02,02,2018,,*4A
$GPGGA,212923.000,4613.9794,N,00603.1094,E,1,7,1.40,435.6,M,48.2,M,,*57
Pressure: 965.980225;
Altitude: 401.132263;
TemperatureCBaro: 28.733334;
AccelX: -0.398647;
AccelY: 0.028133;
AccelZ: 9.722551;
MagX: 0.153813;
MagY: -0.180792;
MagZ: 0.301767;
TemperatureCHumid: 23.785490;
Humidity: 29.118103;
TemperatureC: 25.000000;
Event: sub second micros:31907939/41998528; Event Count:61
Event: sub second micros:33081436/41998528; Event Count:62
PPS: GPS lock:1;
$GNZDA,212924.000,02,02,2018,,*4D
$GPGGA,212924.000,4613.9794,N,00603.1094,E,1,7,1.40,435.6,M,48.2,M,,*50
Pressure: 966.012695;
Altitude: 400.851105;
TemperatureCBaro: 28.741667;
AccelX: -0.420794;
AccelY: 0.029330;
AccelZ: 9.689032;
MagX: 0.154057;
MagY: -0.180914;
MagZ: 0.298105;
TemperatureCHumid: 23.785490;
Humidity: 29.118103;
TemperatureC: 25.000000;
Event: sub second micros:7618629/41998528; Event Count:63
Event: sub second micros:37312149/41998528; Event Count:64
PPS: GPS lock:1;
$GNZDA,212925.000,02,02,2018,,*4C
$GPGGA,212925.000,4613.9794,N,00603.1094,E,1,7,1.40,435.6,M,48.2,M,,*51
Pressure: 965.988525;
Altitude: 401.060150;
TemperatureCBaro: 28.745834;
AccelX: -0.371113;
AccelY: 0.029330;
AccelZ: 9.847054;
MagX: 0.153447;
MagY: -0.180548;
MagZ: 0.301157;
TemperatureCHumid: 23.785490;
Humidity: 29.110474;
TemperatureC: 25.000000;
Event: sub second micros:1169863/41998527; Event Count:65
Event: sub second micros:16455235/41998527; Event Count:66
Event: sub second micros:41869888/41998527; Event Count:67
PPS: GPS lock:1;
$GNZDA,212926.000,02,02,2018,,*4F
$GPGGA,212926.000,4613.9794,N,00603.1094,E,1,7,1.40,435.6,M,48.2,M,,*52
Pressure: 965.981445;
Altitude: 401.121277;
TemperatureCBaro: 28.760418;
AccelX: -0.404034;
AccelY: 0.007781;
AccelZ: 9.796175;
MagX: 0.153569;
MagY: -0.181280;
MagZ: 0.299570;
TemperatureCHumid: 23.817671;
Humidity: 29.087585;
TemperatureC: 25.000000;
Event: sub second micros:177873/41998528; Event Count:68
PPS: GPS lock:1;
$GNZDA,212927.000,02,02,2018,,*4E
$GPGGA,212927.000,4613.9794,N,00603.1094,E,1,7,1.40,435.6,M,48.2,M,,*53
Pressure: 965.874512;
Altitude: 402.046783;
TemperatureCBaro: 28.762501;
AccelX: -0.414808;
AccelY: 0.034717;
AccelZ: 9.728537;
MagX: 0.154180;
MagY: -0.181402;
MagZ: 0.301279;
TemperatureCHumid: 23.828390;
Humidity: 29.095215;
TemperatureC: 25.000000;
PPS: GPS lock:1;
$GNZDA,212928.000,02,02,2018,,*41
$GPGGA,212928.000,4613.9794,N,00603.1094,E,1,7,1.40,435.6,M,48.2,M,,*5C
Pressure: 965.938477;
Altitude: 401.493347;
TemperatureCBaro: 28.772917;
AccelX: -0.429174;
AccelY: -0.004190;
AccelZ: 9.849447;
MagX: 0.154057;
MagY: -0.180548;
MagZ: 0.299448;
TemperatureCHumid: 23.828390;
Humidity: 29.064697;
TemperatureC: 25.000000;
Event: sub second micros:41660554/41998527; Event Count:69
PPS: GPS lock:1;
$GNZDA,212929.000,02,02,2018,,*40
$GPGGA,212929.000,4613.9794,N,00603.1094,E,1,7,1.40,435.6,M,48.2,M,,*5D
Pressure: 965.926514;
Altitude: 401.596832;
TemperatureCBaro: 28.779167;
AccelX: -0.375303;
AccelY: 0.037710;
AccelZ: 9.666286;
MagX: 0.154302;
MagY: -0.180670;
MagZ: 0.300912;
TemperatureCHumid: 23.839117;
Humidity: 29.072327;
TemperatureC: 25.000000;
Event: sub second micros:3703659/41998527; Event Count:70
Event: sub second micros:30485757/41998527; Event Count:71
Event: sub second micros:38169335/41998527; Event Count:72
PPS: GPS lock:1;
$GNZDA,212930.000,02,02,2018,,*48
$GPGGA,212930.000,4613.9794,N,00603.1094,E,1,7,1.40,435.6,M,48.2,M,,*55
Pressure: 965.923340;
Altitude: 401.624512;
TemperatureCBaro: 28.787500;
AccelX: -0.356747;
AccelY: 0.068237;
AccelZ: 9.409499;
MagX: 0.153447;
MagY: -0.181524;
MagZ: 0.300058;
TemperatureCHumid: 23.860571;
Humidity: 29.049438;
TemperatureC: 25.000000;
Event: sub second micros:3388131/41998526; Event Count:73
Event: sub second micros:36153889/41998526; Event Count:74
PPS: GPS lock:1;
$GNZDA,212931.000,02,02,2018,,*49
$GPGGA,212931.000,4613.9852,N,00603.1091,E,1,7,1.40,437.6,M,48.2,M,,*56
Pressure: 965.944580;
Altitude: 401.440582;
TemperatureCBaro: 28.789583;
AccelX: -0.417202;
AccelY: 0.021548;
AccelZ: 9.751283;
MagX: 0.153691;
MagY: -0.181036;
MagZ: 0.301157;
TemperatureCHumid: 23.849844;
Humidity: 29.057068;
TemperatureC: 25.000000;
PPS: GPS lock:1;
$GNZDA,212932.000,02,02,2018,,*4A
$GPGGA,212932.000,4613.9855,N,00603.1090,E,1,7,1.40,437.7,M,48.2,M,,*52
Pressure: 965.987061;
Altitude: 401.072693;
TemperatureCBaro: 28.802082;
AccelX: -0.413012;
AccelY: 0.038907;
AccelZ: 9.718960;
MagX: 0.154424;
MagY: -0.180914;
MagZ: 0.299326;
TemperatureCHumid: 23.882017;
Humidity: 29.049438;
TemperatureC: 25.000000;
Event: sub second micros:5609548/41998526; Event Count:75
Event: sub second micros:14280866/41998526; Event Count:76
PPS: GPS lock:1;
$GNZDA,212933.000,02,02,2018,,*4B
$GPGGA,212933.000,4613.9855,N,00603.1088,E,1,7,1.40,437.8,M,48.2,M,,*55
Pressure: 965.958008;
Altitude: 401.324554;
TemperatureCBaro: 28.806250;
AccelX: -0.396851;
AccelY: 0.027534;
AccelZ: 9.698608;
MagX: 0.154668;
MagY: -0.180670;
MagZ: 0.299936;
TemperatureCHumid: 23.882017;
Humidity: 29.034180;
TemperatureC: 25.000000;
Event: sub second micros:38304297/41998526; Event Count:77
PPS: GPS lock:1;
$GNZDA,212934.000,02,02,2018,,*4C
$GPGGA,212934.000,4613.9857,N,00603.1088,E,1,7,1.40,437.9,M,48.2,M,,*51
Pressure: 965.908447;
Altitude: 401.753082;
TemperatureCBaro: 28.812500;
AccelX: -0.392661;
AccelY: 0.026337;
AccelZ: 9.684841;
MagX: 0.153691;
MagY: -0.180670;
MagZ: 0.299936;
TemperatureCHumid: 23.892744;
Humidity: 29.018921;
TemperatureC: 25.000000;
Event: sub second micros:4883489/41998526; Event Count:78
PPS: GPS lock:1;
$GNZDA,212935.000,02,02,2018,,*4D
$GPGGA,212935.000,4613.9857,N,00603.1088,E,1,7,1.40,437.9,M,48.2,M,,*50
Pressure: 966.004395;
Altitude: 400.922699;
TemperatureCBaro: 28.822918;
AccelX: -0.393858;
AccelY: 0.043696;
AccelZ: 9.695017;
MagX: 0.154180;
MagY: -0.181402;
MagZ: 0.300790;
TemperatureCHumid: 23.892744;
Humidity: 29.011292;
TemperatureC: 25.000000;
Event: sub second micros:31031989/41998525; Event Count:79
Event: sub second micros:41893378/41998525; Event Count:80
PPS: GPS lock:1;
$GNZDA,212936.000,02,02,2018,,*4E
$GPGGA,212936.000,4613.9857,N,00603.1088,E,1,7,1.40,437.9,M,48.2,M,,*53
Pressure: 965.994873;
Altitude: 401.005280;
TemperatureCBaro: 28.827084;
AccelX: -0.401640;
AccelY: 0.040703;
AccelZ: 9.731529;
MagX: 0.156011;
MagY: -0.180792;
MagZ: 0.299692;
TemperatureCHumid: 23.903471;
Humidity: 28.996033;
TemperatureC: 25.000000;
Event: sub second micros:27886178/41998526; Event Count:81
PPS: GPS lock:1;
$GNZDA,212937.000,02,02,2018,,*4F
$GPGGA,212937.000,4613.9857,N,00603.1088,E,1,7,1.72,437.9,M,48.2,M,,*53
Pressure: 965.968018;
Altitude: 401.237823;
TemperatureCBaro: 28.831249;
AccelX: -0.386077;
AccelY: 0.056265;
AccelZ: 9.681250;
MagX: 0.154424;
MagY: -0.181158;
MagZ: 0.300180;
TemperatureCHumid: 23.903471;
Humidity: 29.011292;
TemperatureC: 25.000000;
Event: sub second micros:7479935/41998525; Event Count:82
Event: sub second micros:41581542/41998525; Event Count:83
PPS: GPS lock:1;
$GNZDA,212938.000,02,02,2018,,*40
$GPGGA,212938.000,4613.9857,N,00603.1088,E,1,7,1.40,437.9,M,48.2,M,,*5D
Pressure: 965.955811;
Altitude: 401.343384;
TemperatureCBaro: 28.837500;
AccelX: -0.408224;
AccelY: 0.020351;
AccelZ: 9.720157;
MagX: 0.153813;
MagY: -0.180914;
MagZ: 0.298471;
TemperatureCHumid: 23.924917;
Humidity: 28.996033;
TemperatureC: 25.000000;
Event: sub second micros:22552144/41998525; Event Count:84
Event: sub second micros:26265900/41998525; Event Count:85
Event: sub second micros:27462030/41998525; Event Count:86
Event: sub second micros:36067591/41998525; Event Count:87
PPS: GPS lock:1;
$GNZDA,212939.000,02,02,2018,,*41
$GPGGA,212939.000,4613.9857,N,00603.1088,E,1,7,1.40,437.9,M,48.2,M,,*5C
Pressure: 965.956055;
Altitude: 401.341278;
TemperatureCBaro: 28.852083;
AccelX: -0.345973;
AccelY: 0.027534;
AccelZ: 9.491504;
MagX: 0.154668;
MagY: -0.181036;
MagZ: 0.300424;
TemperatureCHumid: 23.935644;
Humidity: 28.996033;
TemperatureC: 25.000000;
PPS: GPS lock:1;
$GNZDA,212940.000,02,02,2018,,*4F
$GPGGA,212940.000,4613.9857,N,00603.1088,E,1,7,1.40,437.9,M,48.2,M,,*52
Pressure: 965.977539;
Altitude: 401.155243;
TemperatureCBaro: 28.860416;
AccelX: -0.377098;
AccelY: 0.038907;
AccelZ: 9.791985;
MagX: 0.154790;
MagY: -0.180059;
MagZ: 0.299326;
TemperatureCHumid: 23.957098;
Humidity: 28.988403;
TemperatureC: 25.000000;
Event: sub second micros:23799110/41998525; Event Count:88
PPS: GPS lock:1;
$GNZDA,212941.000,02,02,2018,,*4E
$GPGGA,212941.000,4613.9857,N,00603.1088,E,1,7,1.40,437.9,M,48.2,M,,*53
Pressure: 965.989502;
Altitude: 401.051788;
TemperatureCBaro: 28.862499;
AccelX: -0.378894;
AccelY: 0.020351;
AccelZ: 9.561536;
MagX: 0.153447;
MagY: -0.180548;
MagZ: 0.301157;
TemperatureCHumid: 23.978544;
Humidity: 28.957886;
TemperatureC: 25.000000;
Event: sub second micros:19227803/41998525; Event Count:89
PPS: GPS lock:1;
$GNZDA,212942.000,02,02,2018,,*4D
$GPGGA,212942.000,4613.9857,N,00603.1088,E,1,7,1.39,437.9,M,48.2,M,,*5E
Pressure: 965.990479;
Altitude: 401.043427;
TemperatureCBaro: 28.868750;
AccelX: -0.380690;
AccelY: 0.072427;
AccelZ: 9.583683;
MagX: 0.153691;
MagY: -0.180303;
MagZ: 0.299203;
TemperatureCHumid: 23.967817;
Humidity: 28.965515;
TemperatureC: 25.000000;
PPS: GPS lock:1;
$GNZDA,212943.000,02,02,2018,,*4C
$GPGGA,212943.000,4613.9857,N,00603.1088,E,1,7,1.40,437.9,M,48.2,M,,*51
Pressure: 965.977295;
Altitude: 401.157349;
TemperatureCBaro: 28.879166;
AccelX: -0.402238;
AccelY: 0.018556;
AccelZ: 9.710580;
MagX: 0.154790;
MagY: -0.180792;
MagZ: 0.299326;
TemperatureCHumid: 23.957098;
Humidity: 28.950256;
TemperatureC: 25.000000;
Event: sub second micros:19983427/41998524; Event Count:90
Event: sub second micros:33938446/41998524; Event Count:91
PPS: GPS lock:1;
$GNZDA,212944.000,02,02,2018,,*4B
$GPGGA,212944.000,4613.9870,N,00603.1087,E,1,7,1.72,438.3,M,48.2,M,,*58
Pressure: 965.943848;
Altitude: 401.446838;
TemperatureCBaro: 28.885418;
AccelX: -0.399844;
AccelY: 0.028731;
AccelZ: 9.653117;
MagX: 0.153813;
MagY: -0.180792;
MagZ: 0.297617;
TemperatureCHumid: 23.989271;
Humidity: 28.957886;
TemperatureC: 26.000000;
PPS: GPS lock:1;
$GNZDA,212945.000,02,02,2018,,*4A
$GPGGA,212945.000,4613.9872,N,00603.1087,E,1,7,1.72,438.4,M,48.2,M,,*5C
Pressure: 965.947266;
Altitude: 401.417053;
TemperatureCBaro: 28.893749;
AccelX: -0.405830;
AccelY: 0.003591;
AccelZ: 9.711178;
MagX: 0.153935;
MagY: -0.181036;
MagZ: 0.300546;
TemperatureCHumid: 23.999998;
Humidity: 28.934998;
TemperatureC: 26.000000;
PPS: GPS lock:1;
$GNZDA,212946.000,02,02,2018,,*49
$GPGGA,212946.000,4613.9871,N,00603.1085,E,1,7,1.72,438.4,M,48.2,M,,*5E
Pressure: 965.928955;
Altitude: 401.575928;
TemperatureCBaro: 28.902084;
AccelX: -0.401640;
AccelY: 0.031126;
AccelZ: 9.711777;
MagX: 0.154302;
MagY: -0.180670;
MagZ: 0.298227;
TemperatureCHumid: 24.021444;
Humidity: 28.927368;
TemperatureC: 25.000000;
Event: sub second micros:9221362/41998524; Event Count:92
Event: sub second micros:16393148/41998524; Event Count:93
Event: sub second micros:37599531/41998524; Event Count:94
PPS: GPS lock:1;
$GNZDA,212947.000,02,02,2018,,*48
$GPGGA,212947.000,4613.9869,N,00603.1084,E,1,7,1.40,438.3,M,48.2,M,,*51
Pressure: 965.947021;
Altitude: 401.419159;
TemperatureCBaro: 28.906250;
AccelX: -0.374704;
AccelY: -0.003591;
AccelZ: 9.635160;
MagX: 0.155156;
MagY: -0.182379;
MagZ: 0.297739;
TemperatureCHumid: 24.021444;
Humidity: 28.919739;
TemperatureC: 26.000000;
Event: sub second micros:12249312/41998523; Event Count:95
Event: sub second micros:32655416/41998523; Event Count:96
PPS: GPS lock:1;
$GNZDA,212948.000,02,02,2018,,*47
$GPGGA,212948.000,4613.9867,N,00603.1084,E,1,7,1.40,438.2,M,48.2,M,,*51
Pressure: 965.958252;
Altitude: 401.321960;
TemperatureCBaro: 28.916668;
AccelX: -0.402837;
AccelY: 0.032921;
AccelZ: 9.692622;
MagX: 0.154424;
MagY: -0.179449;
MagZ: 0.298959;
TemperatureCHumid: 24.042898;
Humidity: 28.896851;
TemperatureC: 26.000000;
Event: sub second micros:26211660/41998523; Event Count:97
PPS: GPS lock:1;
$GNZDA,212949.000,02,02,2018,,*46
$GPGGA,212949.000,4613.9867,N,00603.1084,E,1,7,1.39,438.2,M,48.2,M,,*5E
Pressure: 965.963867;
Altitude: 401.273865;
TemperatureCBaro: 28.922916;
AccelX: -0.414210;
AccelY: 0.021548;
AccelZ: 9.734522;
MagX: 0.153569;
MagY: -0.181280;
MagZ: 0.299692;
TemperatureCHumid: 24.042898;
Humidity: 28.919739;
TemperatureC: 26.000000;
Event: sub second micros:18171039/41998523; Event Count:98
Event: sub second micros:35895004/41998523; Event Count:99
PPS: GPS lock:1;
$GNZDA,212950.000,02,02,2018,,*4E
$GPGGA,212950.000,4613.9867,N,00603.1084,E,1,7,1.72,438.2,M,48.2,M,,*59
Pressure: 965.932129;
Altitude: 401.548218;
TemperatureCBaro: 28.929167;
AccelX: -0.402238;
AccelY: 0.028731;
AccelZ: 9.705193;
MagX: 0.153935;
MagY: -0.180548;
MagZ: 0.298105;
TemperatureCHumid: 24.064344;
Humidity: 28.896851;
TemperatureC: 26.000000;
PPS: GPS lock:1;
$GNZDA,212951.000,02,02,2018,,*4F
$GPGGA,212951.000,4613.9867,N,00603.1084,E,1,7,1.39,438.2,M,48.2,M,,*57
Pressure: 965.942139;
Altitude: 401.461487;
TemperatureCBaro: 28.937500;
AccelX: -0.398647;
AccelY: 0.052075;
AccelZ: 9.712974;
MagX: 0.153325;
MagY: -0.181036;
MagZ: 0.300546;
TemperatureCHumid: 24.075071;
Humidity: 28.889221;
TemperatureC: 26.000000;
Event: sub second micros:30044490/41998523; Event Count:100
PPS: GPS lock:1;
$GNZDA,212952.000,02,02,2018,,*4C
$GPGGA,212952.000,4613.9867,N,00603.1084,E,1,7,1.39,438.2,M,48.2,M,,*54
Pressure: 965.893311;
Altitude: 401.884247;
TemperatureCBaro: 28.943750;
AccelX: -0.369915;
AccelY: 0.034118;
AccelZ: 9.510059;
MagX: 0.154790;
MagY: -0.181158;
MagZ: 0.299448;
TemperatureCHumid: 24.085798;
Humidity: 28.858704;
TemperatureC: 26.000000;
PPS: GPS lock:1;
$GNZDA,212953.000,02,02,2018,,*4D
$GPGGA,212953.000,4613.9867,N,00603.1084,E,1,7,1.39,438.2,M,48.2,M,,*55
Pressure: 965.932617;
Altitude: 401.544037;
TemperatureCBaro: 28.950001;
AccelX: -0.410020;
AccelY: 0.019154;
AccelZ: 9.731529;
MagX: 0.153325;
MagY: -0.181768;
MagZ: 0.299936;
TemperatureCHumid: 24.096518;
Humidity: 28.866333;
TemperatureC: 26.000000;
Event: sub second micros:2998127/41998522; Event Count:101
PPS: GPS lock:1;
$GNZDA,212954.000,02,02,2018,,*4A
$GPGGA,212954.000,4613.9867,N,00603.1084,E,1,7,1.39,438.2,M,48.2,M,,*52
Pressure: 965.947754;
Altitude: 401.412872;
TemperatureCBaro: 28.956249;
AccelX: -0.411815;
AccelY: 0.026337;
AccelZ: 9.797971;
MagX: 0.154424;
MagY: -0.180059;
MagZ: 0.297861;
TemperatureCHumid: 24.107244;
Humidity: 28.858704;
TemperatureC: 26.000000;
PPS: GPS lock:1;
$GNZDA,212955.000,02,02,2018,,*4B
$GPGGA,212955.000,4613.9867,N,00603.1084,E,1,7,1.39,438.2,M,48.2,M,,*53
Pressure: 965.963379;
Altitude: 401.278046;
TemperatureCBaro: 28.964584;
AccelX: -0.396851;
AccelY: 0.019753;
AccelZ: 9.700404;
MagX: 0.153813;
MagY: -0.180914;
MagZ: 0.301279;
TemperatureCHumid: 24.107244;
Humidity: 28.843445;
TemperatureC: 26.000000;
PPS: GPS lock:1;
$GNZDA,212956.000,02,02,2018,,*48
$GPGGA,212956.000,4613.9867,N,00603.1084,E,1,7,1.39,438.2,M,48.2,M,,*50
Pressure: 965.995850;
Altitude: 400.996918;
TemperatureCBaro: 28.972916;
AccelX: -0.395055;
AccelY: 0.024541;
AccelZ: 9.727939;
MagX: 0.154302;
MagY: -0.180303;
MagZ: 0.298837;
TemperatureCHumid: 24.128698;
Humidity: 28.835815;
TemperatureC: 26.000000;
Event: sub second micros:29039639/41998521; Event Count:102
PPS: GPS lock:1;
$GNZDA,212957.000,02,02,2018,,*49
$GPGGA,212957.000,4613.9867,N,00603.1084,E,1,7,1.39,438.2,M,48.2,M,,*51
Pressure: 965.934814;
Altitude: 401.525238;
TemperatureCBaro: 28.983334;
AccelX: -0.406428;
AccelY: 0.018556;
AccelZ: 9.715368;
MagX: 0.154180;
MagY: -0.180792;
MagZ: 0.300668;
TemperatureCHumid: 24.150145;
Humidity: 28.820557;
TemperatureC: 26.000000;
Event: sub second micros:31207654/41998522; Event Count:103
Event: sub second micros:38627516/41998522; Event Count:104
PPS: GPS lock:1;
$GNZDA,212958.000,02,02,2018,,*46
$GPGGA,212958.000,4613.9867,N,00603.1084,E,1,7,1.39,438.2,M,48.2,M,,*5E
Pressure: 965.981934;
Altitude: 401.117096;
TemperatureCBaro: 28.991667;
AccelX: -0.333403;
AccelY: 0.060455;
AccelZ: 9.443020;
MagX: 0.154790;
MagY: -0.180548;
MagZ: 0.299326;
TemperatureCHumid: 24.139418;
Humidity: 28.828186;
TemperatureC: 26.000000;
Event: sub second micros:39845523/41998521; Event Count:105
PPS: GPS lock:1;
$GNZDA,212959.000,02,02,2018,,*47
$GPGGA,212959.000,4613.9867,N,00603.1084,E,1,7,1.39,438.2,M,48.2,M,,*5F
Pressure: 965.959229;
Altitude: 401.313599;
TemperatureCBaro: 28.995834;
AccelX: -0.401041;
AccelY: 0.020351;
AccelZ: 9.779415;
MagX: 0.154424;
MagY: -0.179571;
MagZ: 0.300912;
TemperatureCHumid: 24.160872;
Humidity: 28.805298;
TemperatureC: 26.000000;
Event: sub second micros:28867695/41998521; Event Count:106
PPS: GPS lock:1;
$GNZDA,213000.000,02,02,2018,,*43
$GPGGA,213000.000,4613.9842,N,00603.1083,E,1,7,1.39,437.9,M,48.2,M,,*5F
Pressure: 965.953613;
Altitude: 401.362183;
TemperatureCBaro: 29.002083;
AccelX: -0.416005;
AccelY: 0.019753;
AccelZ: 9.803358;
MagX: 0.154057;
MagY: -0.180548;
MagZ: 0.297861;
TemperatureCHumid: 24.150145;
Humidity: 28.782410;
TemperatureC: 26.000000;
Event: sub second micros:20462345/41998521; Event Count:107
Event: sub second micros:29608197/41998521; Event Count:108
PPS: GPS lock:1;
$GNZDA,213001.000,02,02,2018,,*42
$GPGGA,213001.000,4613.9839,N,00603.1082,E,1,7,1.39,437.8,M,48.2,M,,*52
Pressure: 965.962402;
Altitude: 401.286407;
TemperatureCBaro: 29.006250;
AccelX: -0.389070;
AccelY: 0.024541;
AccelZ: 9.741107;
MagX: 0.154424;
MagY: -0.181524;
MagZ: 0.295785;
TemperatureCHumid: 24.160872;
Humidity: 28.774780;
TemperatureC: 26.000000;
Event: sub second micros:38277823/41998521; Event Count:109
PPS: GPS lock:1;
$GNZDA,213002.000,02,02,2018,,*41
$GPGGA,213002.000,4613.9836,N,00603.1083,E,1,7,1.39,437.8,M,48.2,M,,*5F
Pressure: 965.900146;
Altitude: 401.825195;
TemperatureCBaro: 29.012501;
AccelX: -0.406428;
AccelY: 0.007183;
AccelZ: 9.720756;
MagX: 0.155034;
MagY: -0.180914;
MagZ: 0.298837;
TemperatureCHumid: 24.182318;
Humidity: 28.782410;
TemperatureC: 26.000000;
Event: sub second micros:10371830/41998520; Event Count:110
Event: sub second micros:16174272/41998520; Event Count:111
Event: sub second micros:24305229/41998520; Event Count:112
Event: sub second micros:35763861/41998520; Event Count:113
PPS: GPS lock:1;
$GNZDA,213003.000,02,02,2018,,*40
$GPGGA,213003.000,4613.9834,N,00603.1083,E,1,7,1.39,437.8,M,48.2,M,,*5C
Pressure: 965.949951;
Altitude: 401.394073;
TemperatureCBaro: 29.022917;
AccelX: -0.391464;
AccelY: 0.008979;
AccelZ: 9.702799;
MagX: 0.155522;
MagY: -0.181280;
MagZ: 0.297250;
TemperatureCHumid: 24.171598;
Humidity: 28.759521;
TemperatureC: 26.000000;
Event: sub second micros:6419764/41998521; Event Count:114
Event: sub second micros:33020781/41998521; Event Count:115
PPS: GPS lock:1;
$GNZDA,213004.000,02,02,2018,,*47
$GPGGA,213004.000,4613.9834,N,00603.1083,E,1,7,1.39,437.8,M,48.2,M,,*5B
Pressure: 965.972656;
Altitude: 401.197571;
TemperatureCBaro: 29.035416;
AccelX: -0.410618;
AccelY: 0.014964;
AccelZ: 9.729733;
MagX: 0.155034;
MagY: -0.180914;
MagZ: 0.298105;
TemperatureCHumid: 24.214499;
Humidity: 28.759521;
TemperatureC: 26.000000;
Event: sub second micros:785874/41998520; Event Count:116
PPS: GPS lock:1;
$GNZDA,213005.000,02,02,2018,,*46
$GPGGA,213005.000,4613.9834,N,00603.1083,E,1,7,1.39,437.8,M,48.2,M,,*5A
Pressure: 965.929688;
Altitude: 401.569122;
TemperatureCBaro: 29.037500;
AccelX: -0.416005;
AccelY: 0.022746;
AccelZ: 9.747092;
MagX: 0.153813;
MagY: -0.181402;
MagZ: 0.301157;
TemperatureCHumid: 24.225225;
Humidity: 28.744263;
TemperatureC: 26.000000;
PPS: GPS lock:1;
$GNZDA,213006.000,02,02,2018,,*45
$GPGGA,213006.000,4613.9834,N,00603.1083,E,1,7,1.39,437.8,M,48.2,M,,*59
Pressure: 965.957764;
Altitude: 401.326660;
TemperatureCBaro: 29.045834;
AccelX: -0.404034;
AccelY: 0.034118;
AccelZ: 9.741706;
MagX: 0.154546;
MagY: -0.180181;
MagZ: 0.300302;
TemperatureCHumid: 24.235945;
Humidity: 28.729004;
TemperatureC: 26.000000;
Event: sub second micros:41983259/41998520; Event Count:117
PPS: GPS lock:1;
$GNZDA,213007.000,02,02,2018,,*44
$GPGGA,213007.000,4613.9834,N,00603.1083,E,1,7,1.39,437.8,M,48.2,M,,*58
Pressure: 965.967529;
Altitude: 401.242004;
TemperatureCBaro: 29.054167;
AccelX: -0.378894;
AccelY: 0.021548;
AccelZ: 9.700404;
MagX: 0.154424;
MagY: -0.180181;
MagZ: 0.299570;
TemperatureCHumid: 24.235945;
Humidity: 28.721375;
TemperatureC: 26.000000;
Event: sub second micros:3745847/41998520; Event Count:118
PPS: GPS lock:1;
$GNZDA,213008.000,02,02,2018,,*4B
$GPGGA,213008.000,4613.9834,N,00603.1083,E,1,7,1.39,437.8,M,48.2,M,,*57
Pressure: 965.908936;
Altitude: 401.748901;
TemperatureCBaro: 29.060417;
AccelX: -0.405231;
AccelY: 0.053871;
AccelZ: 9.711777;
MagX: 0.154057;
MagY: -0.180425;
MagZ: 0.298471;
TemperatureCHumid: 24.268126;
Humidity: 28.706116;
TemperatureC: 26.000000;
Event: sub second micros:8530868/41998519; Event Count:119
Event: sub second micros:36443022/41998519; Event Count:120
PPS: GPS lock:1;
$GNZDA,213009.000,02,02,2018,,*4A
$GPGGA,213009.000,4613.9834,N,00603.1083,E,1,7,1.39,437.8,M,48.2,M,,*56
Pressure: 965.961182;
Altitude: 401.296875;
TemperatureCBaro: 29.068750;
AccelX: -0.381887;
AccelY: 0.029330;
AccelZ: 9.700404;
MagX: 0.153569;
MagY: -0.180792;
MagZ: 0.301401;
TemperatureCHumid: 24.268126;
Humidity: 28.713745;
TemperatureC: 26.000000;
PPS: GPS lock:1;
$GNZDA,213010.000,02,02,2018,,*42
$GPGGA,213010.000,4613.9834,N,00603.1083,E,1,7,1.39,437.8,M,48.2,M,,*5E
Pressure: 965.962646;
Altitude: 401.284332;
TemperatureCBaro: 29.072918;
AccelX: -0.404034;
AccelY: 0.022746;
AccelZ: 9.724945;
MagX: 0.153569;
MagY: -0.180181;
MagZ: 0.299692;
TemperatureCHumid: 24.278845;
Humidity: 28.713745;
TemperatureC: 26.000000;
Event: sub second micros:28138901/41998519; Event Count:121
Event: sub second micros:33335299/41998519; Event Count:122
Event: sub second micros:40597330/41998519; Event Count:123
PPS: GPS lock:1;
$GNZDA,213011.000,02,02,2018,,*43
$GPGGA,213011.000,4613.9834,N,00603.1083,E,1,7,1.39,437.8,M,48.2,M,,*5F
Pressure: 966.007080;
Altitude: 400.899719;
TemperatureCBaro: 29.085417;
AccelX: -0.409421;
AccelY: 0.020950;
AccelZ: 9.719558;
MagX: 0.154668;
MagY: -0.180914;
MagZ: 0.300546;
TemperatureCHumid: 24.257399;
Humidity: 28.683228;
TemperatureC: 26.000000;
PPS: GPS lock:1;
$GNZDA,213012.000,02,02,2018,,*40
$GPGGA,213012.000,4613.9834,N,00603.1083,E,1,7,1.39,437.8,M,48.2,M,,*5C
Pressure: 965.968262;
Altitude: 401.235718;
TemperatureCBaro: 29.091667;
AccelX: -0.400442;
AccelY: 0.014366;
AccelZ: 9.703996;
MagX: 0.154302;
MagY: -0.180670;
MagZ: 0.299570;
TemperatureCHumid: 24.311026;
Humidity: 28.675598;
TemperatureC: 26.000000;
Event: sub second micros:11717314/41998519; Event Count:124
Event: sub second micros:30482695/41998519; Event Count:125
PPS: GPS lock:1;
$GNZDA,213013.000,02,02,2018,,*41
$GPGGA,213013.000,4613.9834,N,00603.1083,E,1,7,1.39,437.8,M,48.2,M,,*5D
Pressure: 965.914551;
Altitude: 401.700287;
TemperatureCBaro: 29.097916;
AccelX: -0.413611;
AccelY: 0.030527;
AccelZ: 9.715368;
MagX: 0.153325;
MagY: -0.181036;
MagZ: 0.300912;
TemperatureCHumid: 24.289572;
Humidity: 28.652710;
TemperatureC: 26.000000;
Event: sub second micros:17858652/41998519; Event Count:126
Event: sub second micros:29807281/41998519; Event Count:127
PPS: GPS lock:1;
$GNZDA,213014.000,02,02,2018,,*46
$GPGGA,213014.000,4613.9834,N,00603.1083,E,1,7,1.39,437.8,M,48.2,M,,*5A
Pressure: 965.991699;
Altitude: 401.032959;
TemperatureCBaro: 29.106251;
AccelX: -0.410020;
AccelY: 0.032323;
AccelZ: 9.762655;
MagX: 0.154668;
MagY: -0.181036;
MagZ: 0.295907;
TemperatureCHumid: 24.332472;
Humidity: 28.645081;
TemperatureC: 26.000000;
PPS: GPS lock:1;
$GNZDA,213015.000,02,02,2018,,*47
$GPGGA,213015.000,4613.9834,N,00603.1083,E,1,7,1.39,437.8,M,48.2,M,,*5B
Pressure: 965.940186;
Altitude: 401.478729;
TemperatureCBaro: 29.112499;
AccelX: -0.381887;
AccelY: 0.038907;
AccelZ: 9.739910;
MagX: 0.154912;
MagY: -0.180914;
MagZ: 0.298471;
TemperatureCHumid: 24.300299;
Humidity: 28.637451;
TemperatureC: 26.000000;
PPS: GPS lock:1;
$GNZDA,213016.000,02,02,2018,,*44
$GPGGA,213016.000,4613.9834,N,00603.1083,E,1,7,1.39,437.8,M,48.2,M,,*58
Pressure: 965.907959;
Altitude: 401.757263;
TemperatureCBaro: 29.122917;
AccelX: -0.412414;
AccelY: 0.016161;
AccelZ: 9.719558;
MagX: 0.155400;
MagY: -0.179693;
MagZ: 0.296396;
TemperatureCHumid: 24.332472;
Humidity: 28.629822;
TemperatureC: 26.000000;
PPS: GPS lock:1;
$GNZDA,213017.000,02,02,2018,,*45
$GPGGA,213017.000,4613.9834,N,00603.1083,E,1,7,1.39,437.8,M,48.2,M,,*59
Pressure: 965.949463;
Altitude: 401.398254;
TemperatureCBaro: 29.127083;
AccelX: -0.383084;
AccelY: 0.022147;
AccelZ: 9.700404;
MagX: 0.154790;
MagY: -0.180914;
MagZ: 0.299326;
TemperatureCHumid: 24.332472;
Humidity: 28.614563;
TemperatureC: 26.000000;
Event: sub second micros:5211689/41998518; Event Count:128
Event: sub second micros:11378080/41998518; Event Count:129
Event: sub second micros:30720964/41998518; Event Count:130
PPS: GPS lock:1;
$GNZDA,213018.000,02,02,2018,,*4A
$GPGGA,213018.000,4613.9834,N,00603.1083,E,1,7,1.39,437.8,M,48.2,M,,*56
Pressure: 965.934326;
Altitude: 401.529419;
TemperatureCBaro: 29.133333;
AccelX: -0.404632;
AccelY: 0.021548;
AccelZ: 9.745296;
MagX: 0.154057;
MagY: -0.179815;
MagZ: 0.297494;
TemperatureCHumid: 24.375372;
Humidity: 28.606934;
TemperatureC: 26.000000;
PPS: GPS lock:1;
$GNZDA,213019.000,02,02,2018,,*4B
$GPGGA,213019.000,4613.9834,N,00603.1083,E,1,7,1.39,437.8,M,48.2,M,,*57
Pressure: 965.928711;
Altitude: 401.578003;
TemperatureCBaro: 29.143749;
AccelX: -0.399844;
AccelY: 0.021548;
AccelZ: 9.705193;
MagX: 0.155644;
MagY: -0.179937;
MagZ: 0.298349;
TemperatureCHumid: 24.353926;
Humidity: 28.606934;
TemperatureC: 26.000000;
PPS: GPS lock:1;
$GNZDA,213020.000,02,02,2018,,*41
$GPGGA,213020.000,4613.9834,N,00603.1083,E,1,7,1.39,437.8,M,48.2,M,,*5D
Pressure: 965.975586;
Altitude: 401.171967;
TemperatureCBaro: 29.147917;
AccelX: -0.393260;
AccelY: 0.010774;
AccelZ: 9.696813;
MagX: 0.150151;
MagY: -0.179815;
MagZ: 0.297861;
TemperatureCHumid: 24.386099;
Humidity: 28.584045;
TemperatureC: 26.000000;
PPS: GPS lock:1;
$GNZDA,213021.000,02,02,2018,,*40
$GPGGA,213021.000,4613.9834,N,00603.1083,E,1,7,1.39,437.8,M,48.2,M,,*5C
Pressure: 965.919922;
Altitude: 401.653778;
TemperatureCBaro: 29.158333;
AccelX: -0.399844;
AccelY: 0.029928;
AccelZ: 9.723748;
MagX: 0.151982;
MagY: -0.179815;
MagZ: 0.302866;
TemperatureCHumid: 24.386099;
Humidity: 28.576416;
TemperatureC: 26.000000;
PPS: GPS lock:1;
$GNZDA,213022.000,02,02,2018,,*43
$GPGGA,213022.000,4613.9834,N,00603.1083,E,1,7,1.39,437.8,M,48.2,M,,*5F
Pressure: 965.947510;
Altitude: 401.414978;
TemperatureCBaro: 29.164583;
AccelX: -0.396851;
AccelY: 0.020950;
AccelZ: 9.704595;
MagX: 0.152837;
MagY: -0.179937;
MagZ: 0.299936;
TemperatureCHumid: 24.386099;
Humidity: 28.561157;
TemperatureC: 26.000000;
PPS: GPS lock:1;
Event: sub second micros:35937244/41998518; Event Count:131
$GNZDA,213023.000,02,02,2018,,*42
$GPGGA,213023.000,4613.9834,N,00603.1083,E,1,7,1.39,437.8,M,48.2,M,,*5E
Pressure: 965.934326;
Altitude: 401.529419;
TemperatureCBaro: 29.174999;
AccelX: -0.405830;
AccelY: 0.016760;
AccelZ: 9.675264;
MagX: 0.154180;
MagY: -0.179815;
MagZ: 0.299692;
TemperatureCHumid: 24.407545;
Humidity: 28.545898;
TemperatureC: 26.000000;
Event: sub second micros:8877595/41998517; Event Count:132
PPS: GPS lock:1;
$GNZDA,213024.000,02,02,2018,,*45
$GPGGA,213024.000,4613.9834,N,00603.1083,E,1,7,1.39,437.8,M,48.2,M,,*59
Pressure: 965.993408;
Altitude: 401.017822;
TemperatureCBaro: 29.181250;
AccelX: -0.414210;
AccelY: 0.019753;
AccelZ: 9.715368;
MagX: 0.154790;
MagY: -0.178350;
MagZ: 0.297983;
TemperatureCHumid: 24.407545;
Humidity: 28.538269;
TemperatureC: 26.000000;
Event: sub second micros:16475583/41998517; Event Count:133
PPS: GPS lock:1;
$GNZDA,213025.000,02,02,2018,,*44
$GPGGA,213025.000,4613.9834,N,00603.1083,E,1,7,1.39,437.8,M,48.2,M,,*58
Pressure: 965.844727;
Altitude: 402.304443;
TemperatureCBaro: 29.185417;
AccelX: -0.391464;
AccelY: 0.019154;
AccelZ: 9.684841;
MagX: 0.152226;
MagY: -0.180059;
MagZ: 0.299081;
TemperatureCHumid: 24.428999;
Humidity: 28.530640;
TemperatureC: 26.000000;
Event: sub second micros:6610574/41998516; Event Count:134
PPS: GPS lock:1;
$GNZDA,213026.000,02,02,2018,,*47
$GPGGA,213026.000,4613.9834,N,00603.1083,E,1,7,1.39,437.8,M,48.2,M,,*5B
Pressure: 965.980225;
Altitude: 401.132263;
TemperatureCBaro: 29.195833;
AccelX: -0.393260;
AccelY: 0.014964;
AccelZ: 9.686039;
MagX: 0.153325;
MagY: -0.179205;
MagZ: 0.299570;
TemperatureCHumid: 24.428999;
Humidity: 28.515381;
TemperatureC: 26.000000;
Event: sub second micros:26425617/41998517; Event Count:135
PPS: GPS lock:1;
$GNZDA,213027.000,02,02,2018,,*46
$GPGGA,213027.000,4613.9834,N,00603.1083,E,1,7,1.39,437.8,M,48.2,M,,*5A
Pressure: 965.985107;
Altitude: 401.089935;
TemperatureCBaro: 29.204166;
AccelX: -0.407625;
AccelY: -0.000000;
AccelZ: 9.718361;
MagX: 0.153935;
MagY: -0.179327;
MagZ: 0.299326;
TemperatureCHumid: 24.461172;
Humidity: 28.500122;
TemperatureC: 26.000000;
Event: sub second micros:14127651/41998517; Event Count:136
Event: sub second micros:28967391/41998517; Event Count:137
PPS: GPS lock:1;
$GNZDA,213028.000,02,02,2018,,*49
$GPGGA,213028.000,4613.9834,N,00603.1083,E,1,7,1.39,437.8,M,48.2,M,,*55
Pressure: 965.954590;
Altitude: 401.353821;
TemperatureCBaro: 29.208332;
AccelX: -0.438152;
AccelY: 0.002394;
AccelZ: 9.805154;
MagX: 0.153935;
MagY: -0.179937;
MagZ: 0.298349;
TemperatureCHumid: 24.461172;
Humidity: 28.492493;
TemperatureC: 26.000000;
PPS: GPS lock:1;
$GNZDA,213029.000,02,02,2018,,*48
$GPGGA,213029.000,4613.9834,N,00603.1083,E,1,7,1.39,437.8,M,48.2,M,,*54
Pressure: 965.956543;
Altitude: 401.337097;
