Event:0.927082;
AccelX: -0.399844;
AccelY: -0.040703;
AccGGA,234656.000Pressure: 967.378418;
Altitude: 389.041412;
TemperatureCBaro: 30.927082;
AccelX: -0.399844;
AccelY: -0.040703;
AccINFO: Setting HV 1&2 to: 129
Detector threshold: 1095
Detector setup finished
INFO: Sensor setup complete
INFO: Running
Pressure: 967.359619;
Altitude: 389.203766;
TemperatureCBaro: 30.924999;
AccelX: -0.404034;
AccelY: -0.043097;
AccelZ: 9.765050;
MagX: 0.099002;
MagY: -0.182134;
MagZ: 0.294565;
TemperatureCHumid: 26.563292;
Humidity: 31.887573;
TemperatureC: 28.000000;
$PGCMD,33,0*6D$PMTK001,314,3*36
$PMTK001,220,3*30
$PMTK705,AXN_3.8_3333_16042100,0006,Quectel-L76,1.0*0B
Event: sub second micros:18921/42000000; Event Count:0
Event: sub second micros:12971491/42000000; Event Count:1
PPS: GPS lock:1;
$GNZDA,234657.000,10,01,2018,,*42
$GPGGA,234657.000,4613.9914,N,00603.1082,E,1,5,2.44,450.3,M,48.2,M,,*5D
Pressure: 967.275635;
Altitude: 389.929321;
TemperatureCBaro: 30.931250;
AccelX: -0.409421;
AccelY: -0.006584;
AccelZ: 9.762655;
MagX: 0.098880;
MagY: -0.181036;
MagZ: 0.294931;
TemperatureCHumid: 26.563292;
Humidity: 31.879944;
TemperatureC: 28.000000;
Event: sub second micros:41171208/41998635; Event Count:2
PPS: GPS lock:1;
$GNZDA,234658.000,10,01,2018,,*4D
$GPGGA,234658.000,4613.9914,N,00603.1082,E,1,5,2.44,450.3,M,48.2,M,,*52
Pressure: 967.289307;
Altitude: 389.811340;
TemperatureCBaro: 30.937500;
AccelX: -0.398048;
AccelY: -0.044294;
AccelZ: 9.742304;
MagX: 0.097659;
MagY: -0.182623;
MagZ: 0.296274;
TemperatureCHumid: 26.595465;
Humidity: 31.864685;
TemperatureC: 28.000000;
PPS: GPS lock:1;
$GNZDA,234659.000,10,01,2018,,*4C
$GPGGA,234659.000,4613.9914,N,00603.1082,E,1,5,2.44,450.3,M,48.2,M,,*53
Pressure: 967.347656;
Altitude: 389.307098;
TemperatureCBaro: 30.945833;
AccelX: -0.381288;
AccelY: -0.032323;
AccelZ: 9.745296;
MagX: 0.098758;
MagY: -0.181768;
MagZ: 0.294076;
TemperatureCHumid: 26.595465;
Humidity: 31.841797;
TemperatureC: 28.000000;
PPS: GPS lock:1;
Event: sub second micros:13723291/41998635; Event Count:3
$GNZDA,234700.000,10,01,2018,,*41
$GPGGA,234700.000,4613.9914,N,00603.1082,E,1,5,2.44,450.3,M,48.2,M,,*5E
Pressure: 967.395752;
Altitude: 388.891632;
TemperatureCBaro: 30.952084;
AccelX: -0.399245;
AccelY: -0.029928;
AccelZ: 9.778817;
MagX: 0.098636;
MagY: -0.182257;
MagZ: 0.295175;
TemperatureCHumid: 26.584745;
Humidity: 31.834167;
TemperatureC: 28.000000;
Event: sub second micros:35535695/41998635; Event Count:4
PPS: GPS lock:1;
$GNZDA,234701.000,10,01,2018,,*40
$GPGGA,234701.000,4613.9914,N,00603.1082,E,1,5,2.63,450.3,M,48.2,M,,*5A
Pressure: 967.364014;
Altitude: 389.165649;
TemperatureCBaro: 30.956249;
AccelX: -0.411815;
AccelY: -0.041301;
AccelZ: 9.762655;
MagX: 0.099124;
MagY: -0.182012;
MagZ: 0.296396;
TemperatureCHumid: 26.616919;
Humidity: 31.803650;
TemperatureC: 28.000000;
Event: sub second micros:16019613/41998635; Event Count:5
Event: sub second micros:23599537/41998635; Event Count:6
PPS: GPS lock:1;
$GNZDA,234702.000,10,01,2018,,*43
$GPGGA,234702.000,4613.9914,N,00603.1082,E,1,5,2.44,450.3,M,48.2,M,,*5C
Pressure: 967.319824;
Altitude: 389.547729;
TemperatureCBaro: 30.964584;
AccelX: -0.397450;
AccelY: -0.017957;
AccelZ: 9.777619;
MagX: 0.099368;
MagY: -0.181036;
MagZ: 0.296640;
TemperatureCHumid: 26.606192;
Humidity: 31.788391;
TemperatureC: 28.000000;
Event: sub second micros:27397372/41998635; Event Count:7
PPS: GPS lock:1;
$GNZDA,234703.000,10,01,2018,,*42
$GPGGA,234703.000,4613.9914,N,00603.1082,E,1,5,2.45,450.3,M,48.2,M,,*5C
Pressure: 967.293213;
Altitude: 389.777405;
TemperatureCBaro: 30.972916;
AccelX: -0.381887;
AccelY: -0.041301;
AccelZ: 9.753078;
MagX: 0.099612;
MagY: -0.183844;
MagZ: 0.291513;
TemperatureCHumid: 26.638372;
Humidity: 31.780762;
TemperatureC: 28.000000;
PPS: GPS lock:1;
$GNZDA,234704.000,10,01,2018,,*45
$GPGGA,234704.000,4613.9914,N,00603.1082,E,1,5,2.44,450.3,M,48.2,M,,*5A
Pressure: 967.341309;
Altitude: 389.361908;
TemperatureCBaro: 30.975000;
AccelX: -0.395654;
AccelY: -0.038308;
AccelZ: 9.756071;
MagX: 0.097903;
MagY: -0.182134;
MagZ: 0.296274;
TemperatureCHumid: 26.649092;
Humidity: 31.757874;
TemperatureC: 28.000000;
Event: sub second micros:7889537/41998635; Event Count:8
Event: sub second micros:15426169/41998635; Event Count:9
Event: sub second micros:39462010/41998635; Event Count:10
Event: sub second micros:41100430/41998635; Event Count:11
PPS: GPS lock:1;
$GNZDA,234705.000,10,01,2018,,*44
$GPGGA,234705.000,4613.9914,N,00603.1082,E,1,5,2.45,450.3,M,48.2,M,,*5A
Pressure: 967.366943;
Altitude: 389.140594;
TemperatureCBaro: 30.983334;
AccelX: -0.409421;
AccelY: -0.040104;
AccelZ: 9.768043;
MagX: 0.099246;
MagY: -0.181890;
MagZ: 0.294931;
TemperatureCHumid: 26.649092;
Humidity: 31.750244;
TemperatureC: 28.000000;
Event: sub second micros:21436221/41998634; Event Count:12
Event: sub second micros:37915604/41998634; Event Count:13
PPS: GPS lock:1;
$GNZDA,234706.000,10,01,2018,,*47
$GPGGA,234706.000,4613.9914,N,00603.1082,E,1,5,2.45,450.3,M,48.2,M,,*59
Pressure: 967.335449;
Altitude: 389.412537;
TemperatureCBaro: 30.993750;
AccelX: -0.380091;
AccelY: -0.028731;
AccelZ: 9.751283;
MagX: 0.097781;
MagY: -0.182501;
MagZ: 0.295419;
TemperatureCHumid: 26.659819;
Humidity: 31.727356;
TemperatureC: 28.000000;
PPS: GPS lock:1;
$GNZDA,234707.000,10,01,2018,,*46
$GPGGA,234707.000,4613.9914,N,00603.1082,E,1,5,2.45,450.3,M,48.2,M,,*58
Pressure: 967.350586;
Altitude: 389.281525;
TemperatureCBaro: 30.997917;
AccelX: -0.389070;
AccelY: -0.023344;
AccelZ: 9.771035;
MagX: 0.099368;
MagY: -0.181768;
MagZ: 0.294687;
TemperatureCHumid: 26.670546;
Humidity: 31.712097;
TemperatureC: 28.000000;
Event: sub second micros:35324196/41998634; Event Count:14
PPS: GPS lock:1;
$GNZDA,234708.000,10,01,2018,,*49
$GPGGA,234708.000,4613.9914,N,00603.1082,E,1,5,2.45,450.3,M,48.2,M,,*57
Pressure: 967.377197;
Altitude: 389.051849;
TemperatureCBaro: 31.002083;
AccelX: -0.396851;
AccelY: -0.023943;
AccelZ: 9.768641;
MagX: 0.098880;
MagY: -0.181890;
MagZ: 0.297006;
TemperatureCHumid: 26.681273;
Humidity: 31.689209;
TemperatureC: 28.000000;
PPS: GPS lock:1;
$GNZDA,234709.000,10,01,2018,,*48
$GPGGA,234709.000,4613.9914,N,00603.1082,E,1,5,2.64,450.3,M,48.2,M,,*55
Pressure: 967.359619;
Altitude: 389.203766;
TemperatureCBaro: 31.012501;
AccelX: -0.386675;
AccelY: -0.033520;
AccelZ: 9.758465;
MagX: 0.098025;
MagY: -0.182012;
MagZ: 0.293954;
TemperatureCHumid: 26.681273;
Humidity: 31.673950;
TemperatureC: 28.000000;
PPS: GPS lock:1;
$GNZDA,234710.000,10,01,2018,,*40
$GPGGA,234710.000,4613.9914,N,00603.1082,E,1,5,2.45,450.3,M,48.2,M,,*5E
Pressure: 967.299316;
Altitude: 389.724670;
TemperatureCBaro: 31.014584;
AccelX: -0.402837;
AccelY: -0.029928;
AccelZ: 9.740508;
MagX: 0.099002;
MagY: -0.181890;
MagZ: 0.296152;
TemperatureCHumid: 26.670546;
Humidity: 31.666321;
TemperatureC: 28.000000;
Event: sub second micros:17670144/41998634; Event Count:15
Event: sub second micros:24242854/41998634; Event Count:16
PPS: GPS lock:1;
$GNZDA,234711.000,10,01,2018,,*41
$GPGGA,234711.000,4613.9914,N,00603.1082,E,1,5,2.45,450.3,M,48.2,M,,*5F
Pressure: 967.337646;
Altitude: 389.393738;
TemperatureCBaro: 31.025000;
AccelX: -0.386077;
AccelY: -0.028731;
AccelZ: 9.745895;
MagX: 0.099490;
MagY: -0.182012;
MagZ: 0.293344;
TemperatureCHumid: 26.702719;
Humidity: 31.635803;
TemperatureC: 28.000000;
Event: sub second micros:20795716/41998634; Event Count:17
Event: sub second micros:31599317/41998634; Event Count:18
Event: sub second micros:39559177/41998634; Event Count:19
PPS: GPS lock:1;
$GNZDA,234712.000,10,01,2018,,*42
$GPGGA,234712.000,4613.9914,N,00603.1082,E,1,5,2.45,450.3,M,48.2,M,,*5C
Pressure: 967.366211;
Altitude: 389.146851;
TemperatureCBaro: 31.031250;
AccelX: -0.411815;
AccelY: -0.037111;
AccelZ: 9.754275;
MagX: 0.098636;
MagY: -0.182867;
MagZ: 0.295663;
TemperatureCHumid: 26.724173;
Humidity: 31.628174;
TemperatureC: 28.000000;
Event: sub second micros:21262924/41998634; Event Count:20
Event: sub second micros:29231801/41998634; Event Count:21
PPS: GPS lock:1;
$GNZDA,234713.000,10,01,2018,,*43
$GPGGA,234713.000,4613.9914,N,00603.1082,E,1,5,2.45,450.3,M,48.2,M,,*5D
Pressure: 967.429688;
Altitude: 388.598297;
TemperatureCBaro: 31.039583;
AccelX: -0.401041;
AccelY: -0.045491;
AccelZ: 9.752480;
MagX: 0.098758;
MagY: -0.181768;
MagZ: 0.295907;
TemperatureCHumid: 26.702719;
Humidity: 31.612915;
TemperatureC: 28.000000;
Event: sub second micros:1907356/41998634; Event Count:22
Event: sub second micros:7819514/41998634; Event Count:23
Event: sub second micros:16554909/41998634; Event Count:24
PPS: GPS lock:1;
$GNZDA,234714.000,10,01,2018,,*44
$GPGGA,234714.000,4613.9914,N,00603.1082,E,1,5,2.45,450.3,M,48.2,M,,*5A
Pressure: 967.331543;
Altitude: 389.446472;
TemperatureCBaro: 31.043751;
AccelX: -0.392063;
AccelY: -0.021548;
AccelZ: 9.766247;
MagX: 0.098636;
MagY: -0.182012;
MagZ: 0.294809;
TemperatureCHumid: 26.734892;
Humidity: 31.605286;
TemperatureC: 28.000000;
Event: sub second micros:14186218/41998634; Event Count:25
Event: sub second micros:22620387/41998634; Event Count:26
PPS: GPS lock:1;
$GNZDA,234715.000,10,01,2018,,*45
$GPGGA,234715.000,4613.9914,N,00603.1082,E,1,5,2.64,450.3,M,48.2,M,,*58
Pressure: 967.385742;
Altitude: 388.977753;
TemperatureCBaro: 31.052082;
AccelX: -0.395055;
AccelY: -0.031724;
AccelZ: 9.766247;
MagX: 0.098514;
MagY: -0.181768;
MagZ: 0.294076;
TemperatureCHumid: 26.724173;
Humidity: 31.567139;
TemperatureC: 28.000000;
Event: sub second micros:1229898/41998633; Event Count:27
Event: sub second micros:14773337/41998633; Event Count:28
Event: sub second micros:27681894/41998633; Event Count:29
PPS: GPS lock:1;
$GNZDA,234716.000,10,01,2018,,*46
$GPGGA,234716.000,4613.9914,N,00603.1082,E,1,5,2.45,450.3,M,48.2,M,,*58
Pressure: 967.338867;
Altitude: 389.382782;
TemperatureCBaro: 31.058334;
AccelX: -0.415407;
AccelY: -0.050280;
AccelZ: 9.751283;
MagX: 0.099368;
MagY: -0.182257;
MagZ: 0.297617;
TemperatureCHumid: 26.734892;
Humidity: 31.574768;
TemperatureC: 28.000000;
Event: sub second micros:13571797/41998633; Event Count:30
Event: sub second micros:37613782/41998633; Event Count:31
PPS: GPS lock:1;
$GNZDA,234717.000,10,01,2018,,*47
$GPGGA,234717.000,4613.9914,N,00603.1082,E,1,5,2.45,450.3,M,48.2,M,,*59
Pressure: 967.409912;
Altitude: 388.768982;
TemperatureCBaro: 31.058334;
AccelX: -0.387274;
AccelY: -0.052674;
AccelZ: 9.766247;
MagX: 0.097903;
MagY: -0.182257;
MagZ: 0.294198;
TemperatureCHumid: 26.756346;
Humidity: 31.551880;
TemperatureC: 28.000000;
PPS: GPS lock:1;
$GNZDA,234718.000,10,01,2018,,*48
$GPGGA,234718.000,4613.9914,N,00603.1082,E,1,5,2.46,450.3,M,48.2,M,,*55
Pressure: 967.380371;
Altitude: 389.024200;
TemperatureCBaro: 31.072918;
AccelX: -0.396851;
AccelY: -0.058061;
AccelZ: 9.767444;
MagX: 0.098392;
MagY: -0.182501;
MagZ: 0.297617;
TemperatureCHumid: 26.756346;
Humidity: 31.528992;
TemperatureC: 28.000000;
Event: sub second micros:3517991/41998633; Event Count:32
Event: sub second micros:18741880/41998633; Event Count:33
PPS: GPS lock:1;
$GNZDA,234719.000,10,01,2018,,*49
$GPGGA,234719.000,4613.9914,N,00603.1082,E,1,5,2.46,450.3,M,48.2,M,,*54
Pressure: 967.394531;
Altitude: 388.902069;
TemperatureCBaro: 31.072918;
AccelX: -0.394457;
AccelY: -0.044893;
AccelZ: 9.748888;
MagX: 0.097781;
MagY: -0.182745;
MagZ: 0.294320;
TemperatureCHumid: 26.777792;
Humidity: 31.521362;
TemperatureC: 28.000000;
PPS: GPS lock:1;
$GNZDA,234720.000,10,01,2018,,*43
$GPGGA,234720.000,4613.9914,N,00603.1082,E,1,5,2.46,450.3,M,48.2,M,,*5E
Pressure: 967.386475;
Altitude: 388.971497;
TemperatureCBaro: 31.077084;
AccelX: -0.378894;
AccelY: -0.031724;
AccelZ: 9.769239;
MagX: 0.098270;
MagY: -0.182257;
MagZ: 0.295785;
TemperatureCHumid: 26.767073;
Humidity: 31.490845;
TemperatureC: 28.000000;
Event: sub second micros:8765809/41998633; Event Count:34
Event: sub second micros:21936316/41998633; Event Count:35
PPS: GPS lock:1;
$GNZDA,234721.000,10,01,2018,,*42
$GPGGA,234721.000,4613.9914,N,00603.1082,E,1,5,2.65,450.3,M,48.2,M,,*5E
Pressure: 967.405762;
Altitude: 388.804993;
TemperatureCBaro: 31.089584;
AccelX: -0.377098;
AccelY: -0.040703;
AccelZ: 9.765648;
MagX: 0.098392;
MagY: -0.182012;
MagZ: 0.296274;
TemperatureCHumid: 26.799246;
Humidity: 31.483215;
TemperatureC: 28.000000;
Event: sub second micros:7375904/41998633; Event Count:36
Event: sub second micros:21941435/41998633; Event Count:37
PPS: GPS lock:1;
$GNZDA,234722.000,10,01,2018,,*41
$GPGGA,234722.000,4613.9914,N,00603.1082,E,1,5,2.46,450.3,M,48.2,M,,*5C
Pressure: 967.385254;
Altitude: 388.981934;
TemperatureCBaro: 31.093750;
AccelX: -0.384281;
AccelY: -0.026337;
AccelZ: 9.761458;
MagX: 0.098880;
MagY: -0.182745;
MagZ: 0.295175;
TemperatureCHumid: 26.799246;
Humidity: 31.460327;
TemperatureC: 28.000000;
PPS: GPS lock:1;
$GNZDA,234723.000,10,01,2018,,*40
$GPGGA,234723.000,4613.9914,N,00603.1082,E,1,5,2.65,450.3,M,48.2,M,,*5C
Pressure: 967.431396;
Altitude: 388.583160;
TemperatureCBaro: 31.102083;
AccelX: -0.417202;
AccelY: -0.035914;
AccelZ: 9.761458;
MagX: 0.098392;
MagY: -0.182134;
MagZ: 0.294565;
TemperatureCHumid: 26.799246;
Humidity: 31.452698;
TemperatureC: 28.000000;
Event: sub second micros:21314613/41998633; Event Count:38
PPS: GPS lock:1;
$GNZDA,234724.000,10,01,2018,,*47
$GPGGA,234724.000,4613.9914,N,00603.1082,E,1,5,2.46,450.3,M,48.2,M,,*5A
Pressure: 967.437256;
Altitude: 388.532532;
TemperatureCBaro: 31.108334;
AccelX: -0.401041;
AccelY: -0.028731;
AccelZ: 9.771634;
MagX: 0.098514;
MagY: -0.182501;
MagZ: 0.296640;
TemperatureCHumid: 26.799246;
Humidity: 31.437439;
TemperatureC: 28.000000;
Event: sub second micros:2966784/41998632; Event Count:39
Event: sub second micros:3161369/41998632; Event Count:40
PPS: GPS lock:1;
$GNZDA,234725.000,10,01,2018,,*46
$GPGGA,234725.000,4613.9914,N,00603.1082,E,1,5,2.66,450.3,M,48.2,M,,*59
Pressure: 967.416016;
Altitude: 388.716248;
TemperatureCBaro: 31.114582;
AccelX: -0.393260;
AccelY: -0.033520;
AccelZ: 9.759663;
MagX: 0.098270;
MagY: -0.182745;
MagZ: 0.294198;
TemperatureCHumid: 26.831419;
Humidity: 31.422180;
TemperatureC: 28.000000;
PPS: GPS lock:1;
$GNZDA,234726.000,10,01,2018,,*45
$GPGGA,234726.000,4613.9914,N,00603.1082,E,1,5,2.46,450.3,M,48.2,M,,*58
Pressure: 967.419434;
Altitude: 388.686493;
TemperatureCBaro: 31.118750;
AccelX: -0.400442;
AccelY: -0.034717;
AccelZ: 9.758465;
MagX: 0.099002;
MagY: -0.182623;
MagZ: 0.297006;
TemperatureCHumid: 26.831419;
Humidity: 31.399292;
TemperatureC: 28.000000;
PPS: GPS lock:1;
$GNZDA,234727.000,10,01,2018,,*44
$GPGGA,234727.000,4613.9914,N,00603.1082,E,1,5,2.46,450.3,M,48.2,M,,*59
Pressure: 967.395264;
Altitude: 388.895813;
TemperatureCBaro: 31.127083;
AccelX: -0.396851;
AccelY: -0.033520;
AccelZ: 9.755472;
MagX: 0.098636;
MagY: -0.181646;
MagZ: 0.294931;
TemperatureCHumid: 26.842146;
Humidity: 31.384033;
TemperatureC: 28.000000;
Event: sub second micros:10784768/41998632; Event Count:41
PPS: GPS lock:1;
$GNZDA,234728.000,10,01,2018,,*4B
$GPGGA,234728.000,4613.9914,N,00603.1082,E,1,5,2.46,450.3,M,48.2,M,,*56
Pressure: 967.370850;
Altitude: 389.106659;
TemperatureCBaro: 31.127083;
AccelX: -0.397450;
AccelY: -0.029928;
AccelZ: 9.767444;
MagX: 0.098025;
MagY: -0.182745;
MagZ: 0.295907;
TemperatureCHumid: 26.842146;
Humidity: 31.368774;
TemperatureC: 28.000000;
PPS: GPS lock:1;
$GNZDA,234729.000,10,01,2018,,*4A
$GPGGA,234729.000,4613.9914,N,00603.1082,E,1,5,2.46,450.3,M,48.2,M,,*57
Pressure: 967.349609;
Altitude: 389.290405;
TemperatureCBaro: 31.135418;
AccelX: -0.390865;
AccelY: -0.028133;
AccelZ: 9.751881;
MagX: 0.100711;
MagY: -0.183111;
MagZ: 0.292245;
TemperatureCHumid: 26.852873;
Humidity: 31.353516;
TemperatureC: 28.000000;
PPS: GPS lock:1;
$GNZDA,234730.000,10,01,2018,,*42
$GPGGA,234730.000,4613.9914,N,00603.1082,E,1,5,2.46,450.3,M,48.2,M,,*5F
Pressure: 967.322754;
Altitude: 389.522156;
TemperatureCBaro: 31.143749;
AccelX: -0.396252;
AccelY: -0.038308;
AccelZ: 9.768043;
MagX: 0.098025;
MagY: -0.181768;
MagZ: 0.297006;
TemperatureCHumid: 26.874319;
Humidity: 31.330627;
TemperatureC: 28.000000;
Event: sub second micros:29549258/41998632; Event Count:42
PPS: GPS lock:1;
$GNZDA,234731.000,10,01,2018,,*43
$GPGGA,234731.000,4613.9914,N,00603.1082,E,1,5,2.46,450.3,M,48.2,M,,*5E
Pressure: 967.367676;
Altitude: 389.133820;
TemperatureCBaro: 31.147917;
AccelX: -0.392063;
AccelY: -0.029928;
AccelZ: 9.767444;
MagX: 0.099368;
MagY: -0.180914;
MagZ: 0.295541;
TemperatureCHumid: 26.874319;
Humidity: 31.300110;
TemperatureC: 28.000000;
PPS: GPS lock:1;
$GNZDA,234732.000,10,01,2018,,*40
$GPGGA,234732.000,4613.9914,N,00603.1082,E,1,5,2.46,450.3,M,48.2,M,,*5D
Pressure: 967.381592;
Altitude: 389.013763;
TemperatureCBaro: 31.154167;
AccelX: -0.383084;
AccelY: -0.042498;
AccelZ: 9.745895;
MagX: 0.098025;
MagY: -0.182623;
MagZ: 0.295663;
TemperatureCHumid: 26.874319;
Humidity: 31.292480;
TemperatureC: 28.000000;
PPS: GPS lock:1;
$GNZDA,234733.000,10,01,2018,,*41
$GPGGA,234733.000,4613.9914,N,00603.1082,E,1,5,2.47,450.3,M,48.2,M,,*5D
Pressure: 967.296875;
Altitude: 389.746094;
TemperatureCBaro: 31.160416;
AccelX: -0.405231;
AccelY: -0.046688;
AccelZ: 9.749487;
MagX: 0.098025;
MagY: -0.182134;
MagZ: 0.294320;
TemperatureCHumid: 26.895773;
Humidity: 31.277222;
TemperatureC: 28.000000;
Event: sub second micros:16364636/41998632; Event Count:43
Event: sub second micros:32873686/41998632; Event Count:44
PPS: GPS lock:1;
$GNZDA,234734.000,10,01,2018,,*46
$GPGGA,234734.000,4613.9914,N,00603.1082,E,1,5,2.47,450.3,M,48.2,M,,*5A
Pressure: 967.337646;
Altitude: 389.393738;
TemperatureCBaro: 31.164583;
AccelX: -0.404034;
AccelY: -0.049083;
AccelZ: 9.744699;
MagX: 0.099002;
MagY: -0.181646;
MagZ: 0.296030;
TemperatureCHumid: 26.895773;
Humidity: 31.284851;
TemperatureC: 28.000000;
Event: sub second micros:4890906/41998632; Event Count:45
Event: sub second micros:17568710/41998632; Event Count:46
PPS: GPS lock:1;
$GNZDA,234735.000,10,01,2018,,*47
$GPGGA,234735.000,4613.9914,N,00603.1082,E,1,5,2.47,450.3,M,48.2,M,,*5B
Pressure: 967.417480;
Altitude: 388.703735;
TemperatureCBaro: 31.172916;
AccelX: -0.396851;
AccelY: -0.040703;
AccelZ: 9.760262;
MagX: 0.098758;
MagY: -0.182501;
MagZ: 0.294443;
TemperatureCHumid: 26.917219;
Humidity: 31.277222;
TemperatureC: 28.000000;
PPS: GPS lock:1;
$GNZDA,234736.000,10,01,2018,,*44
$GPGGA,234736.000,4613.9914,N,00603.1082,E,1,5,2.47,450.3,M,48.2,M,,*58
Pressure: 967.371338;
Altitude: 389.102509;
TemperatureCBaro: 31.179167;
AccelX: -0.396252;
AccelY: -0.025738;
AccelZ: 9.771634;
MagX: 0.097781;
MagY: -0.182379;
MagZ: 0.296762;
TemperatureCHumid: 26.927946;
Humidity: 31.239075;
TemperatureC: 28.000000;
PPS: GPS lock:1;
$GNZDA,234737.000,10,01,2018,,*45
$GPGGA,234737.000,4613.9914,N,00603.1082,E,1,5,2.67,450.3,M,48.2,M,,*5B
Pressure: 967.447754;
Altitude: 388.442230;
TemperatureCBaro: 31.185417;
AccelX: -0.397450;
AccelY: -0.047287;
AccelZ: 9.772831;
MagX: 0.098758;
MagY: -0.182012;
MagZ: 0.295297;
TemperatureCHumid: 26.927946;
Humidity: 31.216187;
TemperatureC: 28.000000;
Event: sub second micros:24739514/41998632; Event Count:47
Event: sub second micros:27430702/41998632; Event Count:48
Event: sub second micros:40396441/41998632; Event Count:49
PPS: GPS lock:1;
$GNZDA,234738.000,10,01,2018,,*4A
$GPGGA,234738.000,4613.9914,N,00603.1082,E,1,5,2.67,450.3,M,48.2,M,,*54
Pressure: 967.304688;
Altitude: 389.678223;
TemperatureCBaro: 31.193750;
AccelX: -0.377098;
AccelY: -0.020950;
AccelZ: 9.774627;
MagX: 0.097903;
MagY: -0.182501;
MagZ: 0.295907;
TemperatureCHumid: 26.927946;
Humidity: 31.208557;
TemperatureC: 28.000000;
Event: sub second micros:4881117/41998632; Event Count:50
Event: sub second micros:20594131/41998632; Event Count:51
PPS: GPS lock:1;
$GNZDA,234739.000,10,01,2018,,*4B
$GPGGA,234739.000,4613.9914,N,00603.1082,E,1,5,2.67,450.3,M,48.2,M,,*55
Pressure: 967.383789;
Altitude: 388.994965;
TemperatureCBaro: 31.197918;
AccelX: -0.384880;
AccelY: -0.026337;
AccelZ: 9.778817;
MagX: 0.098758;
MagY: -0.180670;
MagZ: 0.296152;
TemperatureCHumid: 26.949400;
Humidity: 31.185669;
TemperatureC: 28.000000;
PPS: GPS lock:1;
$GNZDA,234740.000,10,01,2018,,*45
$GPGGA,234740.000,4613.9914,N,00603.1082,E,1,6,2.39,450.3,M,48.2,M,,*53
Pressure: 967.256348;
Altitude: 390.096344;
TemperatureCBaro: 31.200001;
AccelX: -0.393858;
AccelY: -0.035316;
AccelZ: 9.765648;
MagX: 0.100589;
MagY: -0.183721;
MagZ: 0.294076;
TemperatureCHumid: 26.970846;
Humidity: 31.178040;
TemperatureC: 28.000000;
Event: sub second micros:24755155/41998632; Event Count:52
Event: sub second micros:30594920/41998632; Event Count:53
PPS: GPS lock:1;
$GNZDA,234741.000,10,01,2018,,*44
$GPGGA,234741.000,4613.9914,N,00603.1082,E,1,6,2.39,450.3,M,48.2,M,,*52
Pressure: 967.324219;
Altitude: 389.509613;
TemperatureCBaro: 31.206249;
AccelX: -0.381288;
AccelY: -0.046688;
AccelZ: 9.757268;
MagX: 0.098636;
MagY: -0.181890;
MagZ: 0.293710;
TemperatureCHumid: 26.960119;
Humidity: 31.155151;
TemperatureC: 28.000000;
PPS: GPS lock:1;
$GNZDA,234742.000,10,01,2018,,*47
$GPGGA,234742.000,4613.9914,N,00603.1082,E,1,6,2.39,450.3,M,48.2,M,,*51
Pressure: 967.287842;
Altitude: 389.823853;
TemperatureCBaro: 31.214584;
AccelX: -0.389070;
AccelY: -0.036513;
AccelZ: 9.771035;
MagX: 0.099002;
MagY: -0.182745;
MagZ: 0.296518;
TemperatureCHumid: 26.981573;
Humidity: 31.139893;
TemperatureC: 28.000000;
Event: sub second micros:29274157/41998631; Event Count:54
Event: sub second micros:31979574/41998631; Event Count:55
PPS: GPS lock:1;
$GNZDA,234743.000,10,01,2018,,*46
$GPGGA,234743.000,4613.9914,N,00603.1082,E,1,6,2.39,450.3,M,48.2,M,,*50
Pressure: 967.351318;
Altitude: 389.275269;
TemperatureCBaro: 31.218750;
AccelX: -0.392063;
AccelY: -0.023943;
AccelZ: 9.759064;
MagX: 0.099490;
MagY: -0.181890;
MagZ: 0.293588;
TemperatureCHumid: 26.992300;
Humidity: 31.117004;
TemperatureC: 28.000000;
Event: sub second micros:758969/41998632; Event Count:56
PPS: GPS lock:1;
$GNZDA,234744.000,10,01,2018,,*41
$GPGGA,234744.000,4613.9914,N,00603.1082,E,1,6,2.39,450.3,M,48.2,M,,*57
Pressure: 967.291748;
Altitude: 389.790466;
TemperatureCBaro: 31.222916;
AccelX: -0.401640;
AccelY: -0.032921;
AccelZ: 9.770436;
MagX: 0.098392;
MagY: -0.182134;
MagZ: 0.295053;
TemperatureCHumid: 26.992300;
Humidity: 31.117004;
TemperatureC: 29.000000;
Event: sub second micros:28508421/41998631; Event Count:57
Event: sub second micros:32714219/41998631; Event Count:58
PPS: GPS lock:1;
$GNZDA,234745.000,10,01,2018,,*40
$GPGGA,234745.000,4613.9914,N,00603.1082,E,1,6,2.39,450.3,M,48.2,M,,*56
Pressure: 967.303467;
Altitude: 389.689178;
TemperatureCBaro: 31.231251;
AccelX: -0.383084;
AccelY: -0.046090;
AccelZ: 9.762655;
MagX: 0.098758;
MagY: -0.184088;
MagZ: 0.294931;
TemperatureCHumid: 26.981573;
Humidity: 31.117004;
TemperatureC: 29.000000;
Event: sub second micros:39549590/41998631; Event Count:59
PPS: GPS lock:1;
$GNZDA,234746.000,10,01,2018,,*43
$GPGGA,234746.000,4613.9914,N,00603.1082,E,1,6,2.39,450.3,M,48.2,M,,*55
Pressure: 967.271973;
Altitude: 389.961151;
TemperatureCBaro: 31.237499;
AccelX: -0.375901;
AccelY: -0.039506;
AccelZ: 9.769239;
MagX: 0.097537;
MagY: -0.182623;
MagZ: 0.295785;
TemperatureCHumid: 26.992300;
Humidity: 31.094116;
TemperatureC: 29.000000;
Event: sub second micros:9719368/41998630; Event Count:60
PPS: GPS lock:1;
$GNZDA,234747.000,10,01,2018,,*42
$GPGGA,234747.000,4613.9914,N,00603.1082,E,1,6,2.39,450.3,M,48.2,M,,*54
Pressure: 967.334473;
Altitude: 389.420898;
TemperatureCBaro: 31.241667;
AccelX: -0.365725;
AccelY: -0.062251;
AccelZ: 9.750085;
MagX: 0.098514;
MagY: -0.182257;
MagZ: 0.295419;
TemperatureCHumid: 27.013746;
Humidity: 31.063599;
TemperatureC: 29.000000;
